adress,area,floor,price,rooms,floors_total,year,latitude,longitude
"Россия, Самара, Ташкентская улица, 141",31.0,7/9,1550000,1,9.0,1979.0,53.25194,50.249251
"Россия, Самарская область, Волжский район, жилой район Южный Город - 1, Подстепновская улица, 20, подъезд 2",38.5,8/9,2200000,1,10.0,2017.0,53.11113,50.14457
"Россия, Самара, Пролетарская улица, 167",30.7,2/5,2100000,1,5,1964,53.201186,50.153697
"Россия, Самара, проспект Кирова, 435",93.0,7/9,7650000,3,10.0,2011.0,53.261911,50.211665
"Россия, Самара, улица Аминева, 11",31.0,7/9,2300000,1,9.0,1986.0,53.248099,50.21109
"Россия, Самара, посёлок Мехзавод, 1-й квартал, 53",36.0,4/10,2100000,1,,,53.307331,50.286109
"Россия, Самарская область, Волжский район, жилой район Южный Город - 2, Губернаторская улица, 37, подъезд 1",34.7,3/9,1650000,1,10.0,2017.0,53.093543,50.165348
"Россия, Самара, улица Маршала Устинова, 7",33.9,2/3,1650000,1,3.0,2012.0,53.319619,50.314477
"Россия, Самара, проспект Карла Маркса, 432",32.0,4/5,1690000,1,5.0,1968.0,53.243061,50.247212
"Россия, Самара, Ново-Вокзальная улица, 155А",127.0,3/14,7000000,4,14.0,2000.0,53.232627,50.224547
"Россия, Самара, Пензенская улица, 74",55.0,8/12,3590000,2,12.0,1984.0,53.194751,50.147094
"Россия, Самара, Промышленный район, 7-я просека 2-й проезд, 114",92.0,5/19,6199000,3,20.0,2013.0,53.262046,50.183647
"Россия, Самарская область, Волжский район, село Рождествено, Гаражная улица, 15",68.0,5/9,3790000,3,9,1972,53.244553,50.060649
"Россия, Самара, Некрасовская улица, 71",40.4,1/3,2300000,2,,,53.187683,50.100696
"Россия, Самара, Ново-Вокзальная улица, 165А",87.7,13/14,6150000,3,10,2002,53.233592,50.2232
"Россия, Самара, Никитинская улица, 66",33.0,3/5,2370000,1,5.0,1963.0,53.192765,50.119444
"Россия, Самара, улица Советской Армии, 253Б",106.0,4/17,7500000,2,17.0,2011.0,53.239811,50.180062
"Россия, Самара, Партизанская улица, 166",43.3,2/9,2850000,2,9.0,1977.0,53.187764,50.194373
"Россия, Самара, улица Водников, 95",256.0,7/8,35000000,4,,1.0,53.187704,50.082353
"Россия, Самара, Ново-Вокзальная улица, 161",75.0,9/10,4399000,2,10,1999,53.233538,50.2247
"Россия, Самара, проспект Кирова, 411",69.1,3/9,3850000,3,9.0,1981.0,53.255539,50.220244
"Россия, Самара, улица Осипенко, 136",52.0,12/12,3300000,2,12.0,1979.0,53.201186,50.144875
"Россия, Самарская область, Волжский район, село Рождествено, Лесная улица, 35",208.0,8/25,23000000,4,25,2008,53.222471,50.051271
"Россия, Самара, посёлок Соцгород, Пугачевский тракт, 78",32.4,2/5,1520000,1,5.0,1963.0,53.122512,50.087249
"Россия, Самара, улица Дзержинского, 24, подъезд 1",43.5,5/5,2299000,2,5.0,1962.0,53.190273,50.174592
"Россия, Самара, Московское шоссе, 108, подъезд 1",45.0,5/5,2300000,2,5.0,1965.0,53.224832,50.19113
"Россия, Самара, улица Тухачевского, 40А",51.0,3/25,2100000,1,12,1985,53.189706,50.148199
"Россия, Самарская область, городской округ Жигулёвск, село Зольное, улица Мира",35.0,3/3,1569000,1,3.0,2016.0,53.445472,49.797371
"Россия, Самара, проспект Кирова, 212",31.0,5/5,1800000,1,5.0,1967.0,53.241573,50.231392
"Россия, Самара, улица Фадеева, 40",23.0,6/9,1550000,1,9.0,1977.0,53.235095,50.206221
"Россия, Самара, Гвардейский переулок, 13",33.0,1/2,1150000,1,2.0,1958.0,53.225889,50.235614
"Россия, Самара, Садовая улица, 329",123.0,12/14,9600000,3,16,2009,53.202793,50.122561
"Россия, Самара, Теннисная улица, 29",21.0,4/5,950000,1,5.0,1976.0,53.215559,50.272733
"Россия, Самарская область, Волжский район, село Рождествено, Ново-Садовая улица",34.0,2/9,2299000,1,9.0,1971.0,53.235095,50.054667
"Россия, Самара, улица Лейтенанта Шмидта, 10",75.0,13/17,4100000,3,1.0,1926.0,53.225145,50.152143
"Россия, Самара, улица Стара Загора, 114",43.2,7/9,2900000,2,9.0,1979.0,53.242867,50.226757
"Россия, Самарская область, Волжский район, посёлок Усинский, Больничная улица, 17",50.0,9/9,3200000,2,9,1973,53.245927,50.074097
"Россия, Самарская область, Волжский район, село Рождествено, Лесная улица, 35",111.5,20/25,18500000,3,25.0,2008.0,53.222471,50.051271
"Россия, Самара, проспект Карла Маркса, 10",73.0,9/10,4300000,3,10.0,1994.0,53.194826,50.141875
"Россия, Самара, Революционная улица, 4",75.0,21/22,6600000,2,5.0,1966.0,53.217257,50.163866
"Россия, Самара, проспект Кирова, 407",68.6,1/9,3600000,3,9,1981,53.25403,50.221439
"Россия, Самара, Ташкентская улица, 132",46.0,4/5,2690000,2,5.0,1971.0,53.253928,50.243681
"Россия, Самара, Осетинская улица, 6",43.0,2/16,2350000,1,17,2017,53.152083,50.07566
"Россия, Самара, Владимирская улица, 31",61.7,20/20,3085500,1,12.0,1990.0,53.191859,50.140213
"Россия, Самара, посёлок Мехзавод, 16-й квартал, 1",74.5,4/9,3299000,3,,,53.299927,50.274853
"Россия, Самара, улица Алексея Толстого, 72",78.5,3/9,6650000,2,9.0,2004.0,53.185206,50.081499
"Россия, Самара, Ново-Вокзальная улица, 164",115.0,5/10,6550000,3,11.0,2013.0,53.245415,50.204353
"Россия, Самара, посёлок Соцгород, Пугачевский тракт, 55",39.0,8/9,1380000,1,9,1974,53.12556,50.095028
"Россия, Самара, поселок Прибрежный, Парусная улица, 18",60.4,3/5,1800000,3,5.0,1975.0,53.487782,49.852447
"Россия, Самара, улица Мориса Тореза, 79",72.0,2/10,5100000,2,10.0,2007.0,53.196908,50.195271
"Россия, Самара, Краснодонская улица, 10",44.1,18/27,2513700,1,,,53.215769,50.261701
"Россия, Самара, Рабочая улица, 85",109.0,5/11,14900000,3,10.0,2007.0,53.191303,50.11692
"Россия, Самара, Товарная улица, 17В, подъезд 4",53.8,3/10,2350000,2,10.0,1997.0,53.232751,50.296224
"Россия, Самара, улица Стара Загора, 293",64.0,9/9,3700000,3,9.0,1989.0,53.250981,50.25836
"Россия, Самара, улица Гагарина, 82",44.0,2/5,2400000,2,5.0,1962.0,53.201111,50.193807
"Россия, Самара, Черемшанская улица, 226",60.0,9/9,2690000,3,9,1973,53.24395,50.259788
"Россия, Самара, Партизанская улица, 74",44.0,3/5,2500000,2,5.0,1967.0,53.195236,50.165914
"Россия, Самарская область, Волжский район, посёлок городского типа Смышляевка, Демократическая улица",47.0,2/3,3000000,1,3.0,2014.0,53.250459,50.388292
"Россия, Самара, Чернореченская улица, 32",41.3,7/12,1790000,1,9,1978,53.198041,50.141282
"Россия, Самара, Ташкентская улица, 196",108.8,10/16,5500000,3,16.0,2000.0,53.259331,50.239944
"Россия, Самара, Московское шоссе, 260",54.0,9/9,4100000,2,9.0,1986.0,53.247107,50.214612
"Россия, Самара, улица Гагарина, 135",43.7,2/5,2600000,2,5.0,1960.0,53.200927,50.210192
"Россия, Самара, 7-я просека, 100, подъезд 1",34.5,5/18,3100000,1,21,2014,53.25549,50.198631
"Россия, Самара, улица Грибоедова, 8",64.0,2/2,1690000,3,2.0,1960.0,53.250604,50.355081
"Россия, Самара, посёлок Сухая Самарка, Белорусская улица, 40",35.8,9/10,1850000,1,10.0,1997.0,53.146251,50.059796
"Россия, Самара, улица Виталия Талабаева, 4",39.7,1/16,1667400,1,,,53.146947,50.078113
"Россия, Самара, улица Мира, 85",36.4,2/3,1405000,1,3,2016,53.308547,50.316238
"Россия, Самара, Партизанская улица, 175",55.6,5/5,2700000,3,5.0,1965.0,53.18676,50.199511
"Россия, Самара, посёлок Соцгород, Бакинская улица, 28А",61.0,5/5,2350000,3,5.0,1982.0,53.120318,50.080233
"Россия, Самарская область, Волжский район, село Рождествено, улица Пушкина",59.0,6/16,5500000,1,16.0,2012.0,53.244295,50.058709
"Россия, Самара, Ново-Вокзальная улица, 275",70.8,3/10,3790000,3,10,1989,53.25048,50.202475
"Россия, Самара, улица Мичурина, 15А",45.0,9/16,4000000,1,16.0,1999.0,53.201493,50.138354
"Россия, Самара, улица Георгия Димитрова, 18",22.0,5/9,1550000,1,9.0,1975.0,53.250539,50.238318
"Россия, Самара, проспект Кирова, 237",43.0,4/5,2550000,2,5.0,1967.0,53.235629,50.242828
"Россия, Самара, Московское шоссе, 123",21.5,7/9,1750000,1,9,1977,53.237655,50.208665
"Россия, Самара, посёлок Сухая Самарка, Белорусская улица, 24",42.0,9/10,2500000,1,10.0,2010.0,53.147493,50.061539
"Россия, Самара, Московское шоссе, 306",34.0,8/12,2247000,1,12.0,1980.0,53.259164,50.234096
"Россия, Самара, улица Георгия Ратнера, 5",46.0,3/5,2050000,2,5.0,1962.0,53.208154,50.226344
"Россия, Самара, проспект Ленина, 7",54.0,2/12,3550000,2,12.0,1984.0,53.211137,50.143672
"Россия, Самара, Ново-Вокзальная улица, 209",32.7,9/12,2295000,1,12,1976,53.240786,50.215034
"Россия, Самара, улица Врубеля, 15",90.0,24/24,12000000,2,24.0,2015.0,53.218993,50.167711
"Россия, Самара, Владимирская улица, 22",22.0,7/9,1900000,1,9.0,1978.0,53.199595,50.133287
"Россия, Самара, Краснодонская улица, 49",80.5,1/2,4195000,3,2,1941,53.224309,50.253158
"Россия, Самара, Красноглинский район, посёлок Управленческий, Крайняя улица, 14",52.0,2/5,2500000,3,8.0,1974.0,53.34114,50.221205
"Россия, Самара, Алма-Атинская улица, 146",59.8,3/9,3050000,3,9.0,1975.0,53.254968,50.263237
"Россия, Самара, Красноглинский район, микрорайон Крутые Ключи, бульвар Ивана Финютина, 27",36.1,3/3,1550000,1,3.0,2011.0,53.319511,50.30977
"Россия, Самара, улица 22 Партсъезда, 16",33.0,5/5,1850000,1,5.0,1963.0,53.207901,50.232731
"Россия, Самара, Нагорная улица, 145",83.7,5/10,5600000,2,10,2006,53.232972,50.251919
"Россия, Самара, улица Свободы, 230",13.0,1/5,889000,1,,,53.236653,50.282614
"Россия, Самара, Некрасовская улица, 43",119.0,2/5,8850000,3,,1.0,53.188881,50.095684
"Россия, Самара, проспект Кирова, 327",31.0,1/9,1700000,1,9,1982,53.250825,50.230126
"Россия, Самарская область, Волжский район, село Рождествено, улица Пушкина",58.0,13/14,5088000,2,14.0,2011.0,53.244295,50.058709
"Россия, Самара, Алма-Атинская улица, 28",30.0,5/5,1420000,1,5.0,1962.0,53.239132,50.281788
"Россия, Самара, Владимирская улица, 43А",56.5,4/13,3400000,2,,,53.188379,50.142791
"Россия, Самарская область, Волжский район, село Рождествено, улица Фрунзе",52.5,2/5,4499000,2,5.0,1931.0,53.246261,50.062689
"Россия, Самарская область, Красноярский район, посёлок городского типа Волжский, микрорайон Жилгородок, 45",43.4,2/10,1545000,1,10,2015,53.435576,50.122076
"Россия, Самара, улица Ивана Булкина, 83",59.0,5/5,2450000,3,5.0,1965.0,53.213224,50.194283
"Россия, Самара, Ново-Садовая улица, 201Б",32.5,11/24,2022000,0,,,53.22157,50.169202
"Россия, Самара, Вольская улица, 81",42.0,9/10,2800000,1,,1,53.219317,50.244238
"Россия, Самара, Чернореченская улица, 8к8",49.0,2/3,3500000,2,3.0,1954.0,53.193995,50.130206
"Россия, Самара, Ново-Садовая улица, 321А",89.0,4/9,6300000,3,9,2010,53.244548,50.203347
"Россия, Самара, Чапаевская улица, 120",55.9,2/4,5000000,2,2,1,53.188508,50.09448
"Россия, Самара, проспект Металлургов, 11",90.0,3/4,3600000,4,4.0,1955.0,53.226169,50.261567
"Россия, Самара, улица Елизарова, 26",59.9,3/5,2450000,2,24.0,2007.0,53.228465,50.279847
"Россия, Самара, проспект Ленина, 10",54.0,3/9,4040000,3,9.0,1968.0,53.207124,50.133027
"Россия, Самара, проспект Карла Маркса, 200",92.0,22/24,5500000,3,5.0,1978.0,53.217764,50.193241
"Россия, Самара, улица Красных Коммунаров, 42",30.7,5/5,1750000,1,5,1960,53.211611,50.255772
"Россия, Самара, Кировский район, Ташкентский переулок, 43",40.0,1/10,2200000,1,10.0,2005.0,53.236761,50.262627
"Россия, Самара, улица Стара Загора, 150",30.0,1/5,1670000,1,5,1970,53.247129,50.234132
"Россия, Самара, улица Осипенко, 2",67.3,5/9,6200000,3,9.0,1970.0,53.213332,50.130448
"Россия, Самара, Осетинская улица, 4",36.0,13/16,2300000,1,17,2014,53.154827,50.075966
"Россия, Самара, улица Максима Горького, 11",20.0,1/3,950000,1,,1878.0,53.178293,50.074268
"Россия, Самарская область, Волжский район, село Рождествено, Садовая улица",184.0,2/10,11000000,4,16.0,2009.0,53.239881,50.060515
"Россия, Самара, улица Победы, 92А",40.0,6/9,2250000,1,5.0,1956.0,53.212695,50.247229
"Россия, Самара, проспект Кирова, 322",54.0,12/12,3800000,2,12,1988,53.255296,50.218124
"Россия, Самара, проспект Карла Маркса, 376",44.0,1/5,2150000,2,5.0,1968.0,53.242732,50.238201
"Россия, Самара, Красноглинский район, микрорайон Крутые Ключи, бульвар Ивана Финютина, 76",34.5,2/3,1590000,1,3,2014,53.327493,50.315439
"Россия, Самара, улица Фадеева, 57",46.0,4/12,2650000,2,9.0,1970.0,53.235268,50.211054
"Россия, Самара, посёлок Соцгород, Пугачевский тракт, 49",76.6,2/5,3200000,4,5,1974,53.123685,50.09413
"Россия, Самара, Московское шоссе, 139",50.0,3/9,3100000,2,9.0,1977.0,53.241557,50.209285
"Россия, Самара, улица Мечникова, 5",48.0,12/18,2641100,1,19.0,2016.0,53.186339,50.134868
"Россия, Самара, улица Свободы, 184",58.0,1/5,2850000,3,5.0,1968.0,53.229473,50.274978
"Россия, Самара, Кузнецкая улица, 31",62.6,5/5,2700000,3,5,1977,53.228692,50.271664
"Россия, Самара, улица Осипенко, 2Б, подъезд 1",85.0,1/16,7900000,3,16.0,1977.0,53.214453,50.131904
"Россия, Самара, улица Аминева, 25",45.0,5/9,2899000,2,9.0,1986.0,53.250103,50.209518
"Россия, Самара, улица Чкалова, 72",100.0,3/9,7300000,2,11,2015,53.201364,50.123424
"Россия, Самара, улица Георгия Димитрова, 79",60.0,7/9,3580000,3,9,1979,53.257419,50.228518
"Россия, Самара, Красноглинский район, посёлок Управленческий, Крайняя улица, 6",55.0,5/5,2700000,3,5.0,1977.0,53.342156,50.217666
"Россия, Самара, улица Челюскинцев, 14",22.0,8/9,1947000,1,9.0,1975.0,53.209352,50.143788
"Россия, Самара, улица Советской Армии, 5",30.0,8/9,1650000,2,9.0,1991.0,53.194125,50.218888
"Россия, Самара, Воронежская улица, 186",46.0,1/5,2500000,2,5.0,1967.0,53.239078,50.223047
"Россия, Самара, Красноглинский район, посёлок Управленческий, улица 8 Марта, 19",44.0,2/2,1690000,2,2,1959,53.347258,50.209896
"Россия, Самара, Днепровская улица, 3",60.8,3/5,3800000,4,5.0,1978.0,53.200075,50.22461
"Россия, Самара, Ставропольская улица, 98к1",23.0,2/5,1300000,1,5,1972,53.222406,50.231994
"Россия, Самара, посёлок Мехзавод, 1-й квартал, 50",39.0,1/10,1930000,1,None,None,53.306503,50.286809
"Россия, Самара, Революционная улица, 87",32.0,5/5,2150000,1,5.0,1962.0,53.210468,50.171475
"Россия, Самара, улица Скляренко, 17",77.0,3/9,4500000,3,9.0,1986.0,53.214329,50.159123
"Россия, Самара, улица Георгия Димитрова, 78",62.0,4/9,3500000,3,9.0,1971.0,53.253686,50.230979
"Россия, Самара, Краснодонская улица, 10",44.3,4/27,1904900,1,,,53.215769,50.261701
"Россия, Самара, улица Венцека, 78",87.0,3/9,5850000,2,9,2004,53.18301,50.099816
"Россия, Самара, улица Виталия Талабаева, 2",40.0,5/16,2150000,1,,,53.146748,50.077151
"Россия, Самара, Гвардейская улица, 15",34.0,9/9,2000000,1,9,1972,53.234492,50.28009
"Россия, Самара, Красноармейская улица, 60",127.0,1/3,4690000,3,3,1917,53.191228,50.110569
"Россия, Самара, Кромская улица, 4",125.0,2/10,6600000,3,10.0,2007.0,53.233403,50.25367
"Россия, Самара, улица Карбышева, 71, подъезд 2",44.3,8/18,3000000,1,18.0,2010.0,53.209071,50.207659
"Россия, Самара, улица Победы, 98",72.0,4/4,3590000,3,5.0,1954.0,53.215348,50.253212
"Россия, Самара, Ставропольская улица, 92",42.2,1/3,2150000,2,3.0,1962.0,53.221905,50.231617
"Россия, Самара, Партизанская улица, 171В",33.0,9/10,2600000,1,5,1966,53.187154,50.197472
"Россия, Самара, Дачная улица, 25",70.0,1/9,3880000,3,12.0,1976.0,53.199034,50.143249
"Россия, Самара, проспект Кирова, 235",44.0,4/5,2700000,2,5,1967,53.235085,50.24431
"Россия, Самара, Береговая улица, 8В",49.0,1/3,2000000,1,3.0,1972.0,53.201353,50.288094
"Россия, Самара, Минская улица, 37",366.0,4/9,2000000,1,9,1980,53.235963,50.24625
"Россия, Самара, проспект Карла Маркса, 356",23.0,5/5,1150000,2,5.0,1971.0,53.237963,50.23539
"Россия, Самара, улица Стара Загора, 55",29.0,5/9,2100000,1,9.0,1968.0,53.229571,50.209922
"Россия, Самара, поселок Прибрежный, Звёздная улица, 11",31.0,2/5,1100000,1,5.0,1968.0,53.487182,49.847264
"Россия, Самара, поселок Прибрежный, Парусная улица, 12",52.0,1/5,1850000,3,5.0,1966.0,53.486844,49.851611
"Россия, Самара, Солнечная улица, 15",68.0,5/12,4450000,2,12,1987,53.241363,50.192854
"Россия, Самара, улица Георгия Димитрова, 25, подъезд 3",62.6,1/5,3050000,3,5,1970,53.252312,50.238273
"Россия, Самара, посёлок Рубежный, Охтинская улица, 16",34.1,2/2,1149000,1,2,1980,53.138332,50.2383
"Россия, Самара, улица Стара Загора, 181",59.8,9/9,3450000,3,9.0,1974.0,53.245114,50.235282
"Россия, Самарская область, Волжский район, село Рождествено, Спортивная улица",68.3,2/4,3800000,3,4.0,1975.0,53.24611,50.061296
"Россия, Самара, Нагорная улица, 148",85.0,9/10,5300000,4,10.0,1992.0,53.236335,50.256563
"Россия, Самара, проспект Металлургов, 96",44.0,3/5,2800000,2,5.0,1960.0,53.239283,50.279353
"Россия, Самара, Запорожская улица, 43",17.0,3/5,950000,1,5,1973,53.210242,50.220945
"Россия, Самара, Заводское шоссе, 71В",34.0,5/10,1900000,1,9,1981,53.209913,50.284537
"Россия, Самара, Красноармейская улица, 74",108.2,4/12,7900000,3,11,2001,53.189533,50.118429
"Россия, Самара, улица Свободы, 152А",30.0,1/2,1400000,1,,,53.224902,50.263956
"Россия, Самара, улица Алексея Толстого, 26",100.0,4/6,8700000,4,2.0,1917.0,53.180878,50.078481
"Россия, Самара, улица Венцека, 41/43",43.1,2/4,2200000,2,3.0,1917.0,53.184974,50.089342
"Россия, Самара, посёлок Соцгород, улица Игоря Егорова, 7",34.1,4/5,1550000,1,5.0,1994.0,53.107184,50.084661
"Россия, Самара, Красноармейская улица, 137",72.0,1/2,2800000,3,2.0,1950.0,53.188168,50.127484
"Россия, Самара, проспект Карла Маркса, 324",43.5,2/9,2550000,2,9,1969,53.235726,50.230548
"Россия, Самара, улица Георгия Димитрова, 77",60.0,7/9,3400000,3,9,1979,53.257317,50.229631
"Россия, Самара, улица Осипенко, 136",57.5,9/12,3700000,2,12.0,1979.0,53.201186,50.144875
"Россия, Самара, улица Стара Загора, 116",31.0,9/9,1950000,1,9.0,1979.0,53.24423,50.22399
"Россия, Самара, Куйбышевский район, посёлок Совхоз Волгарь, Новокомсомольская улица, 9",78.0,1/5,3600000,4,5,1979,53.154362,50.089404
"Россия, Самара, проспект Кирова, 130",90.0,2/10,5200000,3,10.0,2011.0,53.230918,50.247283
"Россия, Самара, улица Маршала Устинова, 7",31.0,2/3,1330000,1,5.0,1964.0,53.319619,50.314477
"Россия, Самара, Советская улица, 4",34.0,9/9,1950000,1,9.0,1984.0,53.22446,50.271457
"Россия, Самара, улица Дыбенко, 114",56.6,6/12,3699000,2,12,1994,53.20748,50.216902
"Россия, Самара, проспект Карла Маркса, 30",33.3,7/12,2200000,1,12.0,1979.0,53.199735,50.151855
"Россия, Самара, 6-я просека, 137",97.0,12/16,5650000,3,14,2004,53.247328,50.188641
"Россия, Самара, улица Георгия Димитрова, 110Б",73.0,6/17,4990000,2,17.0,2014.0,53.262278,50.222786
"Россия, Самара, Солнечная улица, 34",60.0,15/16,5600000,2,17.0,2013.0,53.254074,50.201712
"Россия, Самара, Крейсерная улица, 1А",53.7,2/10,2850000,2,10.0,2002.0,53.182497,50.208377
"Россия, Самара, улица Георгия Димитрова, 35",30.0,1/5,1900000,1,5.0,1970.0,53.253513,50.237402
"Россия, Самара, Клиническая улица, 20",44.0,6/9,2780000,2,9,1977,53.200787,50.137896
"Россия, Самара, Ленинская улица, 204",213.0,3/7,20500000,4,9,2002,53.197556,50.112329
"Россия, Самара, посёлок Соцгород, улица Игоря Егорова, 28",54.0,7/10,1800000,2,10.0,1995.0,53.112649,50.085191
"Россия, Самара, Революционная улица, 148",38.0,12/16,2500000,1,9,1971,53.194114,50.181051
"Россия, Самара, улица Карбышева, 71",46.0,3/19,2750000,1,18,2010,53.209282,50.207802
"Россия, Самара, посёлок Сухая Самарка, Белорусская улица, 135",76.5,9/10,3200000,2,10.0,2011.0,53.142049,50.040294
"Россия, Самара, Межевая улица, 1",50.2,4/9,3750000,1,,1.0,53.224153,50.150202
"Россия, Самара, улица Николая Панова, 28",46.0,8/10,2980000,1,10.0,1989.0,53.214426,50.157721
"Россия, Самара, Воронежская улица, 214",41.1,1/9,2200000,2,9.0,1968.0,53.24105,50.222238
"Россия, Самара, Енисейская улица, 57",50.8,11/12,2649000,1,11,2001,53.239396,50.276407
"Россия, Самара, улица Волгина, 142",42.8,1/5,2400000,2,5.0,1963.0,53.19618,50.183332
"Россия, Самара, улица Лукачева, 36А",55.0,4/5,2700000,2,5,None,53.21406,50.170433
"Россия, Самара, улица 22 Партсъезда, 52",42.7,8/9,1800000,2,9.0,1987.0,53.214469,50.222957
"Россия, Самара, Республиканская улица, 67",55.0,4/4,2900000,3,4,1960,53.237143,50.27647
"Россия, Самара, Аэродромная улица, 123",45.0,3/5,2190000,2,5.0,1964.0,53.1916,50.209312
"Россия, Самара, Партизанская улица, 216",58.0,1/5,2650000,3,5.0,1964.0,53.188816,50.205413
"Россия, Самара, Демократическая улица, 2Б",80.0,11/20,5700000,2,20.0,2007.0,53.261437,50.213641
"Россия, Самара, Вольская улица, 59",29.3,5/5,1650000,1,5,1979,53.216443,50.239342
"Россия, Самара, Некрасовская улица, 70",47.0,2/2,1400000,3,2.0,1.0,53.188087,50.100544
"Россия, Самара, Отважная улица, 29",46.0,11/12,2950000,1,13.0,2011.0,53.207874,50.206787
"Россия, Самара, Красноглинский район, микрорайон Крутые Ключи, бульвар Ивана Финютина, 36",38.0,1/3,1550000,1,3,2013,53.323873,50.312717
"Россия, Самара, Красноглинский район, микрорайон Крутые Ключи, улица Виталия Жалнина, 20",46.0,3/3,2500000,2,3.0,2013.0,53.314713,50.311513
"Россия, Самара, 7-я просека, 104",78.6,3/19,5690000,3,1,2014,53.256061,50.199484
"Россия, Самара, Севастопольская улица, 11",43.5,5/5,2500000,2,5.0,1963.0,53.220384,50.26843
"Россия, Самара, Ленинская улица, 119",150.0,7/9,14000000,4,9.0,2007.0,53.192226,50.110829
"Россия, Самара, Ташкентская улица, 210",68.0,7/9,3450000,3,9,1980,53.26315,50.234258
"Россия, Самара, Алма-Атинская улица, 80",74.0,3/5,3100000,4,5,1974,53.247797,50.267657
"Россия, Самара, Молодогвардейская улица, 139",152.1,10/25,21000000,5,,,53.200129,50.10702
"Россия, Самара, проспект Кирова, 415А",55.0,4/14,3600000,2,18.0,2016.0,53.258319,50.218654
"Россия, Самара, посёлок Соцгород, улица Игоря Егорова, 28",74.0,3/10,3050000,3,10,1995,53.112649,50.085191
"Россия, Самара, поселок Прибрежный, Звёздная улица, 5",56.0,1/5,2100000,3,5.0,1964.0,53.485628,49.848449
"Россия, Самара, улица Ерошевского, 76",52.6,5/5,3000000,2,5.0,1977.0,53.212091,50.166363
"Россия, Самара, посёлок Сухая Самарка, Белорусская улица, 107А",43.0,1/5,2200000,2,5.0,1977.0,53.142805,50.04412
"Россия, Самара, Солнечная улица, 8",72.0,24/25,4250000,2,25,2015,53.240964,50.186476
"Россия, Самарская область, Волжский район, жилой район Южный Город - 1, Николаевский проспект, 7",68.0,4/5,4000000,3,5,2014,53.11753,50.161171
"Россия, Самара, улица Елизарова, 26",72.5,1/5,2590000,2,,,53.228465,50.279847
"Россия, Самара, улица Алексея Толстого, 2",79.8,5/5,3000000,2,5,1,53.177667,50.077017
"Россия, Самара, улица Мичурина, 148",53.0,20/22,4000000,1,22.0,2013.0,53.217613,50.168977
"Россия, Самарская область, Волжский район, жилой район Южный Город - 1, Николаевский проспект, 36, подъезд 2",28.0,6/7,1850000,1,10.0,2016.0,53.114319,50.148217
"Россия, Самара, Красноглинский район, микрорайон Крутые Ключи, 38",49.6,2/3,1900000,2,3.0,2011.0,53.326283,50.313148
"Россия, Самара, Молодогвардейская улица, 69",31.9,3/3,2100000,1,3.0,1888.0,53.18901,50.098028
"Россия, Самара, посёлок Сухая Самарка, Флотская улица, 7",60.0,1/5,1899000,3,5,1965,53.14509,50.041048
"Россия, Самара, Красноглинский район, микрорайон Крутые Ключи, бульвар Ивана Финютина, 23",45.0,2/3,2200000,2,3.0,2011.0,53.319172,50.309025
"Россия, Самара, Красноглинский район, посёлок Управленческий, Коптевская улица, 7",47.0,4/5,2200000,2,5.0,1972.0,53.34135,50.227529
"Россия, Самара, переулок Штамповщиков, 3",71.0,4/4,3200000,3,4.0,1967.0,53.215575,50.251622
"Россия, Самара, Ленинградская улица, 63",57.1,3/3,4800000,2,3,1917,53.186005,50.096456
"Россия, Самарская область, Волжский район, село Рождествено, Ново-Садовая улица",54.0,1/12,3500003,3,12.0,1972.0,53.235095,50.054667
"Россия, Самара, улица Потапова, 78В",48.0,5/18,2750000,1,19,2016,53.222579,50.189683
"Россия, Самара, Ново-Садовая улица, 106Н",57.2,5/22,4897000,1,22.0,2014.0,53.222039,50.153454
"Россия, Самара, посёлок Соцгород, Пугачевский тракт, 10, подъезд 1",62.8,1/5,2450000,4,5.0,1968.0,53.109417,50.079775
"Россия, Самара, улица Стара Загора, 222",50.3,12/12,2650000,2,12.0,1979.0,53.251127,50.250077
"Россия, Самара, проспект Кирова, 283",33.0,2/9,2150000,1,9.0,1972.0,53.243093,50.233952
"Россия, Самара, Московское шоссе, 286",69.3,9/12,3600000,3,12,1982,53.255076,50.227574
"Россия, Самара, 5-я просека, 106",64.0,8/9,4300000,2,10,2012,53.244785,50.185354
"Россия, Самара, улица Мичурина, 132",108.0,4/9,7800000,4,14.0,2007.0,53.215343,50.164567
"Россия, Самара, Красноглинский район, посёлок Управленческий, улица Сергея Лазо, 2",44.0,1/5,1850000,2,,,53.346661,50.2095
"Россия, Самара, Партизанская улица, 242",48.0,4/5,2290000,2,5.0,1964.0,53.190931,50.210165
"Россия, Самара, Волжское шоссе, 119",46.5,4/14,2300000,1,14,2011,53.276495,50.263058
"Россия, Самара, Красноглинский район, микрорайон Крутые Ключи, улица Евгения Золотухина, 31",43.7,2/3,2150000,2,3,2012,53.316875,50.312447
"Россия, Самара, улица Советской Армии, 203",50.0,16/16,3600000,1,17.0,2012.0,53.229765,50.193771
"Россия, Самара, Московское шоссе, 57",96.0,16/19,6900000,3,21.0,2009.0,53.223802,50.193699
"Россия, Самара, 6-я просека, 155, подъезд 2",53.0,5/16,3500000,1,16,2006,53.244979,50.189576
"Россия, Самара, Московское шоссе, 155, подъезд 4",52.9,9/9,3350000,2,9.0,1974.0,53.245297,50.216705
"Россия, Самарская область, Волжский район, жилой район Южный Город - 1, Весенняя улица, 12",36.0,1/5,1600000,1,5.0,2014.0,53.115827,50.15729
"Россия, Самара, Волжское шоссе, 119",66.5,8/10,5550000,2,14.0,2011.0,53.276495,50.263058
"Россия, Самара, Ново-Вокзальная улица, 146",85.0,3/9,5300000,4,9,1976,53.241465,50.211342
"Россия, Самара, поселок Прибрежный, улица Труда, 3, подъезд 1",42.7,2/3,1300000,2,3.0,1961.0,53.484229,49.851405
"Россия, Самара, Осетинская улица, 4",35.0,13/16,1950000,1,17.0,2014.0,53.154827,50.075966
"Россия, Самара, Мирная улица, 157",45.0,1/5,2700000,2,5.0,1967.0,53.2364,50.244247
"Россия, Самара, Революционная улица, 77",50.0,7/10,3500000,2,11,1,53.213693,50.167109
"Россия, Самара, проспект Карла Маркса, 13",81.0,1/9,4900000,4,10.0,1988.0,53.190737,50.13724
"Россия, Самара, улица Братьев Коростелёвых, 140",81.8,8/9,7100000,2,9.0,1995.0,53.193386,50.113057
"Россия, Самара, Красноглинский район, микрорайон Крутые Ключи, бульвар Ивана Финютина, 67",29.0,3/3,1447000,1,3.0,2014.0,53.32568,50.317783
"Россия, Самара, улица Железной Дивизии, 7",22.6,9/9,1300000,1,9,1976,53.210091,50.279111
"Россия, Самара, улица Стара Загора, 100А",80.0,2/9,5990000,3,9,1978,53.237731,50.223559
"Россия, Самара, Промышленный район, 7-я просека 6-й проезд, 56",49.9,4/4,3993200,1,5,2017,53.259811,50.189423
"Россия, Самара, улица Стара Загора, 200",74.0,11/12,3500000,3,12.0,1985.0,53.251746,50.245074
"Россия, Самара, улица Железной Дивизии, 5",21.0,3/9,1230000,1,9.0,1975.0,53.209745,50.278293
"Россия, Самарская область, Красноярский район, поселок городского типа Новосемейкино, улица Мира, 16А",46.0,3/3,2300000,2,3.0,2013.0,53.37323,50.372571
"Россия, Самара, Ново-Садовая улица, 201",48.7,6/25,3100000,1,,,53.221651,50.168429
"Россия, Самара, Красноглинский район, микрорайон Крутые Ключи, улица Евгения Золотухина, 15",30.0,2/3,1450000,1,3.0,2012.0,53.315574,50.30951
"Россия, Самара, улица Карбышева, 69А",50.0,15/16,3450000,2,16,2010,53.209427,50.206724
"Россия, Самара, посёлок Соцгород, Пугачевский тракт, 19",30.0,5/5,1150000,1,5.0,1969.0,53.120421,50.087752
"Россия, Самара, улица Лукачева, 42",47.0,1/5,2500000,2,5,1974,53.214006,50.172139
"Россия, Самара, Краснодонская улица, 10",44.5,11/27,2245020,1,,,53.215769,50.261701
"Россия, Самара, Демократическая улица, 2Б",66.0,16/20,6000000,2,20.0,2007.0,53.261437,50.213641
"Россия, Самара, Галактионовская улица, 43",56.2,3/7,4000000,2,,1.0,53.187359,50.099978
"Россия, Самарская область, Волжский район, жилой район Южный Город - 1, Подстепновская улица, 20",38.0,1/9,1700000,1,12.0,1968.0,53.110946,50.144606
"Россия, Самара, Осетинская улица, 4",36.0,8/16,1950000,1,17.0,2014.0,53.154827,50.075966
"Россия, Самара, Красноглинский район, посёлок Красная Глинка, 5-й квартал, 5",38.0,3/10,1900000,1,5,1974,53.373756,50.186476
"Россия, Самара, улица Георгия Димитрова, 42",24.0,2/5,1250000,1,5,1969,53.25229,50.234698
"Россия, Самара, Пензенская улица, 45",70.0,10/10,5100000,3,10.0,1991.0,53.188384,50.139342
"Россия, Самара, Вольская улица, 87",87.0,10/18,7000000,3,17.0,2009.0,53.219921,50.245577
"Россия, Самара, посёлок Мехзавод, 1-й квартал, 35",47.0,5/10,2550000,1,None,None,53.309537,50.286827
"Россия, Самара, Казачья улица, 7",58.0,1/2,1650000,3,1.0,1961.0,53.157478,50.087994
"Россия, Самара, улица Победы, 7Ак2",22.0,5/5,1300000,1,5.0,1962.0,53.203964,50.231572
"Россия, Самара, улица Аэропорт 2, 2",50.0,2/5,2350000,2,5,1981,53.251644,50.37682
"Россия, Самара, улица Алексея Толстого, 72",140.5,4/9,14700000,3,12.0,2008.0,53.185206,50.081499
"Россия, Самара, проспект Ленина, 16, подъезд 5",72.0,4/9,6700000,3,9,1974,53.211142,50.140626
"Россия, Самара, Партизанская улица, 66А",57.0,3/8,2400000,2,8.0,1977.0,53.195214,50.163381
"Россия, Самара, проспект Карла Маркса, 4Б",39.0,17/24,2999000,1,25.0,2017.0,53.192107,50.134069
"Россия, Самара, Аэродромная улица, 99А",41.0,2/6,3100000,1,5,1964,53.190731,50.202619
"Россия, Самара, Революционная улица, 3",57.0,4/22,4100000,1,22.0,2008.0,53.216826,50.162761
"Россия, Самара, Аэродромная улица, 116",43.0,1/5,2620000,2,5.0,1965.0,53.194848,50.209428
"Россия, Самарская область, Волжский район, село Рождествено, Ново-Садовая улица",58.5,8/16,3180000,1,None,1,53.235095,50.054667
"Россия, Самара, улица Степана Разина, 150",169.0,11/12,12300000,4,2.0,1.0,53.191643,50.088794
"Россия, Самара, улица Калинина, 34",93.0,6/18,5300000,3,19,1,53.222239,50.244723
"Россия, Самарская область, Волжский район, жилой район Южный Город - 1, Николаевский проспект, 56",31.0,3/9,1800000,1,10.0,2017.0,53.110368,50.139333
"Россия, Самара, посёлок Мехзавод, 16-й квартал, 3",64.8,7/9,3200000,3,,,53.300793,50.275347
"Россия, Самара, Вилоновская улица, 20",150.0,2/5,19500000,4,5,1962,53.19789,50.103095
"Россия, Самара, Пугачёвская улица, 34",44.0,1/5,2100000,2,5,1969,53.229549,50.273191
"Россия, Самара, Красноглинский район, посёлок Красная Глинка, 4-й квартал, 9",36.6,9/10,1550000,1,None,None,53.391454,50.168519
"Россия, Самара, Вольская улица, 50",42.0,3/5,2100000,2,4.0,1962.0,53.215887,50.23442
"Россия, Самара, посёлок Мехзавод, 1-й квартал, 40",41.0,3/10,2200000,1,11.0,2017.0,53.307208,50.289235
"Россия, Самара, Железнодорожный район, микрорайон Речной",57.7,5/5,3950000,3,5.0,1955.0,53.182195,50.152646
"Россия, Самара, Красноглинский район, посёлок Управленческий, Красноглинское шоссе",55.0,8/10,2500000,2,,,53.351999,50.2141
"Россия, Самара, Молодогвардейская улица, 225",56.3,2/9,4450000,2,9.0,1975.0,53.209158,50.126658
"Россия, Самара, посёлок Сухая Самарка, Белорусская улица, 135",44.6,1/10,1950000,1,10,2011,53.142049,50.040294
"Россия, Самара, поселок Прибрежный, улица Никонова, 1",33.0,6/9,760000,1,9,1977,53.486775,49.854953
"Россия, Самара, Красноглинский район, посёлок Управленческий, Красногвардейская улица, 6",63.0,5/9,3300000,3,9.0,1985.0,53.349843,50.211
"Россия, Самара, Рабочая улица, 43",85.0,5/10,8500000,2,None,1917,53.192798,50.112114
"Россия, Самара, Красноглинский район, микрорайон Крутые Ключи, улица Евгения Золотухина, 6",29.8,1/3,1350000,1,3.0,2012.0,53.316187,50.306698
"Россия, Самара, улица Георгия Димитрова, 99",49.3,9/12,2890000,2,12.0,1981.0,53.259994,50.22708
"Россия, Самара, Арцыбушевская улица, 3А",53.0,7/11,4300000,2,10.0,1991.0,53.185368,50.109715
"Россия, Самара, Партизанская улица, 58",34.0,1/9,1650000,1,9.0,1978.0,53.195565,50.161162
"Россия, Самара, Ставропольская улица, 163",63.0,3/5,3270000,3,5,1972,53.232729,50.256788
"Россия, Самара, посёлок Мехзавод, 14-й квартал, 4",46.0,3/5,2000000,2,5,1966,53.30166,50.270217
"Россия, Самарская область, Волжский район, жилой район Южный Город - 1, улица Лета, 8",32.0,5/5,1700000,1,5,2014,53.116984,50.160731
"Россия, Самара, Краснодонская улица, 68",44.0,8/9,2500000,2,9.0,1979.0,53.227296,50.248316
"Россия, Самара, Ташкентская улица, 218",56.0,5/12,3350000,2,9.0,1981.0,53.264831,50.231186
"Россия, Самарская область, Волжский район, село Рождествено, Ново-Садовая улица",59.7,2/17,4250000,1,17.0,2006.0,53.235095,50.054667
"Россия, Самара, Ново-Вокзальная улица, 15",88.0,10/16,5600000,3,17.0,2010.0,53.216303,50.244687
"Россия, Самара, проспект Кирова, 236",58.0,3/5,2850000,3,5.0,1969.0,53.244699,50.22558
"Россия, Самара, Самарская улица, 52",40.0,1/4,2690000,2,4,1941,53.187926,50.101631
"Россия, Самара, улица Осипенко, 34",57.7,9/9,4400000,3,9.0,1974.0,53.207017,50.139396
"Россия, Самара, Московское шоссе, 51",48.0,6/17,2800000,1,16,2013,53.223711,50.192244
"Россия, Самара, улица Алексея Толстого, 100",110.0,8/9,7500000,2,None,1,53.188141,50.083682
"Россия, Самарская область, Волжский район, жилой район Южный Город - 1, Николаевский проспект, 16",33.0,2/5,1950000,1,5.0,2014.0,53.116789,50.156131
"Россия, Самара, Балаковская улица, 6",35.0,3/5,1750000,1,5.0,1981.0,53.185805,50.193897
"Россия, Самара, Красноглинский район, микрорайон Крутые Ключи, улица Евгения Золотухина, 36",34.6,2/3,1550000,1,3.0,2012.0,53.318624,50.312303
"Россия, Самара, Красноармейская улица, 153",70.9,10/12,6150000,2,12.0,2007.0,53.188417,50.131616
"Россия, Самара, Самарская улица, 91",73.0,2/2,1950000,5,1,1888,53.188476,50.102619
"Россия, Самара, поселок 113-й километр, Липяговская улица, 9",53.0,6/10,1300000,2,9.0,1990.0,53.104643,50.031643
"Россия, Самара, проспект Кирова, 399",33.5,5/9,2350000,1,9,1971,53.251779,50.227592
"Россия, Самарская область, Волжский район, жилой район Южный Город - 1, Подстепновская улица, 22",53.0,9/9,3700000,2,10.0,2017.0,53.11039,50.143842
"Россия, Самара, Красноглинский район, микрорайон Крутые Ключи, бульвар Маршала Василевского, 9",38.0,1/3,1550000,1,3.0,2014.0,53.311302,50.311387
"Россия, Самара, 6-я просека, 144",72.0,6/16,4200000,2,16,2009,53.248029,50.193169
"Россия, Самара, проспект Карла Маркса, 243",79.0,6/10,3999000,3,10.0,1999.0,53.220605,50.199978
"Россия, Самара, Печерская улица, 29",41.0,15/22,3250000,2,24,2014,53.203419,50.183961
"Россия, Самара, поселок 113-й километр, Восковая улица, 3",56.0,2/2,1250000,3,2.0,1953.0,53.100042,50.031301
"Россия, Самара, Ново-Вокзальная улица, 203",44.0,5/9,2800000,2,9,1976,53.239994,50.214881
"Россия, Самара, Киевская улица, 13",50.0,11/17,3550000,1,17,2012,53.197291,50.153724
"Россия, Самара, Солнечная улица, 16",60.0,8/18,4800000,2,25.0,2015.0,53.241455,50.187015
"Россия, Самарская область, Волжский район, жилой район Южный Город - 1, Николаевский проспект, 46",33.0,1/9,1700000,1,10.0,2015.0,53.112692,50.143357
"Россия, Самара, улица Лейтенанта Шмидта, 10",72.0,14/17,4100000,3,1.0,1926.0,53.225145,50.152143
"Россия, Самара, Красноглинский район, посёлок Управленческий, улица Гайдара, 6",33.0,2/5,1600000,1,5.0,1969.0,53.347801,50.222122
"Россия, Самара, Садовая улица, 156",191.5,7/10,12500000,4,9,1999,53.194416,50.108449
"Россия, Самара, улица Советской Армии, 203",52.0,7/16,4000000,2,17.0,2012.0,53.229765,50.193771
"Россия, Самарская область, Волжский район, посёлок Усинский, Юбилейная улица",45.0,2/2,2700000,1,16,2009,53.248492,50.077268
"Россия, Самара, улица Шверника, 9",62.6,11/16,5700000,3,17.0,2013.0,53.24451,50.195864
"Россия, Самара, проспект Карла Маркса, 31",95.0,9/10,5900000,4,12.0,1998.0,53.193418,50.14227
"Россия, Самара, Ново-Садовая улица, 271",43.0,14/16,3500000,1,16.0,2008.0,53.230056,50.181949
"Россия, Самара, улица Георгия Димитрова, 115",67.0,7/9,4120000,3,9,1984,53.264691,50.222912
"Россия, Самара, улица Мичурина, 4",47.2,5/16,4200000,1,16.0,2011.0,53.198386,50.127754
"Россия, Самара, посёлок Соцгород, улица Игоря Егорова, 13",84.0,1/5,3500000,3,5.0,2002.0,53.108622,50.085111
"Россия, Самара, проспект Карла Маркса, 243",74.0,4/10,3700000,3,10,1999,53.220605,50.199978
"Россия, Самара, Красноглинский район, микрорайон Крутые Ключи, бульвар Ивана Финютина, 41",33.4,2/3,1400000,1,3.0,2011.0,53.32063,50.312366
"Россия, Самара, улица Воеводина, 16",77.2,1/5,2000000,3,5.0,1979.0,53.234271,50.298622
"Россия, Самара, 6-я просека, 125",58.0,14/16,3990000,1,16.0,2003.0,53.24784,50.190151
"Россия, Самара, Молодёжная улица, 14",64.3,17/17,5000000,1,18,2012,53.259843,50.221717
"Россия, Самара, посёлок Мехзавод, 1-й квартал, 37",39.0,9/10,1850000,1,10,2015,53.308838,50.287582
"Россия, Самара, Садовая улица, 337",78.0,8/23,7800000,3,26.0,2013.0,53.203656,50.12407
"Россия, Самара, Осетинская улица, 8",81.1,4/16,3200000,2,17.0,2017.0,53.151079,50.075499
"Россия, Самара, Ново-Садовая улица, 353В",41.5,6/16,3070000,1,16.0,2014.0,53.252764,50.212069
"Россия, Самара, поселок Прибрежный, Парусная улица, 24, подъезд 1",50.0,1/5,1750000,3,5,1977,53.489802,49.851531
"Россия, Самара, Красноглинский район, посёлок Управленческий, Красноглинское шоссе",59.0,1/10,2500000,2,,,53.351999,50.2141
"Россия, Самара, Печерская улица, 29",40.0,14/22,3150000,1,24.0,2014.0,53.203419,50.183961
"Россия, Самара, улица Карбышева, 69А",48.5,9/16,2990000,1,16,2010,53.209427,50.206724
"Россия, Самара, улица Куйбышева, 71",27.0,2/3,1650000,1,3.0,1870.0,53.184607,50.08724
"Россия, Самара, Воронежская улица, 51",55.0,2/9,2850000,3,9,1975,53.225808,50.24422
"Россия, Самара, Клиническая улица, 17",63.0,5/5,3800000,3,5.0,1973.0,53.202168,50.134123
"Россия, Самара, проспект Металлургов, 23",34.0,5/9,2300000,1,9,1974,53.228347,50.266301
"Россия, Самара, 1-й Безымянный переулок, 7",54.0,1/4,2670000,2,4.0,1958.0,53.206046,50.231365
"Россия, Самара, Красноармейская улица, 125А",50.0,3/5,3050000,2,5.0,1965.0,53.186744,50.123046
"Россия, Самара, посёлок Сухая Самарка, Флотская улица, 7",31.0,4/5,1250000,1,5,1965,53.14509,50.041048
"Россия, Самара, Гвардейская улица, 21",21.0,9/9,1400000,1,9.0,1975.0,53.238582,50.282713
"Россия, Самарская область, Волжский район, посёлок Усинский, Юбилейная улица",36.0,1/2,1700000,1,5,1980,53.248492,50.077268
"Россия, Самара, улица Фадеева, 67, подъезд 3",45.9,9/9,2800000,2,9,1971,53.237354,50.215375
"Россия, Самара, проспект Карла Маркса, 514",63.5,2/9,3651250,3,9.0,1975.0,53.250577,50.266274
"Россия, Самара, Самарская улица, 207",350.0,10/11,35000000,4,17.0,1985.0,53.201326,50.11604
"Россия, Самара, Красноглинский район, микрорайон Крутые Ключи, улица Евгения Золотухина, 38",33.6,3/3,1400000,1,3.0,2012.0,53.318785,50.312672
"Россия, Самарская область, Волжский район, СДТ Речник, Самарская улица",32.0,1/2,850000,1,1,1,53.140569,50.022606
"Россия, Самара, Красноглинский район, микрорайон Крутые Ключи, бульвар Ивана Финютина, 35",44.0,2/3,2350000,2,3.0,2011.0,53.320157,50.311216
"Россия, Самара, улица Мичурина, 112",39.0,3/9,3080000,1,10.0,1989.0,53.210554,50.153886
"Россия, Самара, Красноглинский район, микрорайон Крутые Ключи, бульвар Ивана Финютина, 54",49.0,1/3,2350000,2,3,2013,53.325965,50.315816
"Россия, Самара, Владимирская улица, 38",47.0,1/9,2980000,2,None,None,53.197232,50.137905
"Россия, Самара, Красноглинский район, посёлок Управленческий, улица Гайдара, 8",59.0,4/4,2300000,3,4.0,1960.0,53.347957,50.222993
"Россия, Самара, Партизанская улица, 82",47.4,3/5,2800000,2,5.0,1986.0,53.191562,50.171097
"Россия, Самара, проспект Карла Маркса, 480",53.0,1/9,2390000,3,9.0,1972.0,53.247689,50.259869
"Россия, Самара, улица Гастелло, 22А",37.0,2/24,2990000,1,19,2017,53.226929,50.191462
"Россия, Самара, проспект Кирова, 303",50.4,5/12,3000000,2,12.0,1977.0,53.245205,50.231248
"Россия, Самара, Московское шоссе, 20",62.0,1/5,2800000,2,5.0,1959.0,53.208149,50.169067
"Россия, Самара, Ставропольская улица, 157",45.1,1/5,2150000,2,5,1974,53.231489,50.25491
"Россия, Самара, улица Мира, 69",36.4,3/3,1660000,1,3,2016,53.306707,50.313911
"Россия, Самара, проспект Кирова, 216",59.5,5/9,2800000,3,,1.0,53.241056,50.229057
"Россия, Самарская область, Волжский район, село Рождествено, Гаражная улица, 15",68.0,5/9,3750000,3,9.0,1972.0,53.244553,50.060649
"Россия, Самара, Ново-Вокзальная улица, 146",56.0,6/9,3350000,3,9.0,1976.0,53.241465,50.211342
"Россия, Самара, Севастопольская улица, 35",31.3,5/5,1680000,1,5.0,1968.0,53.225102,50.262869
"Россия, Самара, улица Георгия Димитрова, 45",30.0,2/5,1800000,1,5,1970,53.253675,50.234725
"Россия, Самара, Дачная улица, 27",60.2,11/16,4290000,2,16.0,1993.0,53.198203,50.144175
"Россия, Самара, улица Свободы, 186",40.8,2/5,2200000,2,5,1968,53.230212,50.275158
"Россия, Самара, Центральная улица",42.0,8/24,2550000,1,2,1963,53.220886,50.192872
"Россия, Самара, Демократическая улица, 33",70.0,6/9,4499000,3,9.0,1985.0,53.26608,50.221636
"Россия, Самара, Красноглинский район, посёлок Управленческий, улица Академика Кузнецова, 11",64.0,9/9,2780000,3,9.0,1978.0,53.342828,50.223541
"Россия, Самара, улица Льва Толстого, 91",84.0,2/5,7000000,3,7.0,1997.0,53.189026,50.106706
"Россия, Самара, Чернореченская улица, 11, подъезд 1",43.5,1/2,2000000,2,2,1,53.193197,50.129227
"Россия, Самара, посёлок Мехзавод, Банная улица, 1, подъезд 5",54.0,5/5,2600000,2,5.0,1998.0,53.296418,50.291876
"Россия, Самара, Красноглинский район, посёлок Управленческий, Зелёная улица, 9",52.0,1/2,2240000,2,,,53.358679,50.210857
"Россия, Самара, Каховская улица, 72",47.0,2/2,1500000,2,2,1950,53.230066,50.252251
"Россия, Самара, Аэродромная улица, 122",45.0,3/5,2700000,2,5,1964,53.194055,50.209851
"Россия, Самара, Партизанская улица, 238, подъезд 1",43.0,5/5,2400000,2,5.0,1964.0,53.190127,50.208674
"Россия, Самара, Ташкентская улица, 222",34.2,1/9,2000000,1,9.0,1982.0,53.266893,50.227017
"Россия, Самара, Арцыбушевская улица, 204",73.0,25/25,7500000,2,1.0,2014.0,53.201008,50.126613
"Россия, Самара, Волжское шоссе, 115",84.0,3/10,4700000,3,10,2009,53.276856,50.262222
"Россия, Самара, Никитинская улица, 79",78.6,4/9,6200000,3,9.0,1992.0,53.194378,50.12142
"Россия, Самара, Галактионовская улица, 2",66.0,12/16,5900000,2,16.0,2008.0,53.18179,50.094893
"Россия, Самара, улица Мечникова, 5",50.0,2/19,2500000,1,19,2016,53.186339,50.134868
"Россия, Самара, улица Братьев Коростелёвых, 152",150.0,10/12,9900000,3,14,2010,53.19536,50.114342
"Россия, Самара, Красноглинский район, посёлок Управленческий, улица Гайдара, 10",30.0,5/5,1899000,1,5.0,1.0,53.34843,50.222436
"Россия, Самара, проспект Кирова, 188",58.5,3/5,2600000,3,5.0,1967.0,53.240242,50.233117
"Россия, Самара, проспект Карла Маркса, 19",56.4,5/12,3800000,2,12.0,1989.0,53.19147,50.139072
"Россия, Самара, Воронежская улица, 218",42.9,4/6,2750000,2,6.0,1966.0,53.241562,50.220954
"Россия, Самара, Красноглинский район, посёлок Управленческий, улица Академика Кузнецова, 9",62.0,7/9,3400000,3,9,1980,53.342807,50.221807
"Россия, Самара, Красноглинский район, микрорайон Крутые Ключи, бульвар Ивана Финютина, 41",35.0,2/3,1550000,1,3.0,2011.0,53.32063,50.312366
"Россия, Самара, Демократическая улица, 150",38.0,2/3,2150000,1,3,2015,53.287225,50.220523
"Россия, Самара, Олимпийская улица, 51",45.0,3/4,2050000,2,4,1965,53.235284,50.288265
"Россия, Самара, улица Литвинова, 322А, подъезд 1",47.2,4/5,2180000,2,5.0,1984.0,53.22673,50.296484
"Россия, Самара, Ленинская улица, 202, подъезд 4",106.1,8/10,7500000,3,10.0,1999.0,53.1968,50.112608
"Россия, Самара, Аэродромная улица, 120",30.5,5/5,1847000,1,5.0,1964.0,53.193359,50.209662
"Россия, Самара, Красноглинский район, посёлок Управленческий, улица Парижской Коммуны, 6",78.0,2/2,950000,1,2.0,1939.0,53.344591,50.21127
"Россия, Самара, Красноглинский район, микрорайон Крутые Ключи, улица Виталия Жалнина, 15, подъезд 3",55.4,2/3,2600000,2,3,2013,53.313174,50.311513
"Россия, Самара, Демократическая улица, 37",42.0,6/10,3000000,1,10.0,2006.0,53.267001,50.221493
"Россия, Самара, улица Дыбенко, 116, подъезд 2",55.0,10/10,3499000,2,10.0,1994.0,53.208225,50.216804
"Россия, Самара, проспект Карла Маркса, 372А",23.0,5/5,1250000,1,5,1970,53.241703,50.237797
"Россия, Самара, проспект Кирова, 170",37.0,2/9,2250000,1,9.0,1976.0,53.239159,50.236198
"Россия, Самара, Солнечная улица, 14",40.0,7/19,2900000,1,None,None,53.241509,50.185524
"Россия, городской округ Самара, поселок Берёза, 4-й квартал, 8",52.0,5/5,2200000,2,5.0,1975.0,53.516446,50.137752
"Россия, Самара, посёлок Мехзавод, 11-й квартал, 20",31.0,3/5,1420000,1,,,53.296967,50.288561
"Россия, Самара, Пензенская улица, 58",67.0,4/9,3650000,3,12,1984,53.192868,50.1428
"Россия, Самара, поселок Прибрежный, Прибрежная улица, 10/1",32.0,1/4,810000,1,3,1962,53.482986,49.855286
"Россия, Самара, улица Советской Армии, 132",43.0,4/5,2300000,2,5.0,1969.0,53.212835,50.209177
"Россия, Самара, Красноглинский район, посёлок Красная Глинка, 4-й квартал, 1",30.0,5/5,1400000,1,5.0,1962.0,53.38952,50.16674
"Россия, Самара, улица Гагарина, 17",43.0,5/5,2350000,2,5.0,1965.0,53.198732,50.166435
"Россия, Самара, Ново-Вокзальная улица, 20",44.0,5/5,2500000,2,5,1960,53.2142,50.245029
"Россия, Самара, Коммунистическая улица, 27",82.5,9/14,6300000,2,14.0,2005.0,53.200868,50.142378
"Россия, Самара, улица Гая, 36",45.5,3/5,2650000,2,5,1974,53.212722,50.166435
"Россия, Самара, Ленинская улица, 110",55.0,3/5,3900000,2,5.0,1996.0,53.188454,50.106481
"Россия, городской округ Самара, поселок Берёза, 3-й квартал, 2",18.0,2/5,850000,1,5.0,1968.0,53.51567,50.142064
"Россия, Самара, улица Стара Загора, 100",55.1,1/9,4600000,2,9,1978,53.237186,50.223981
"Россия, Самара, улица Василия Татищева, 12",47.0,2/5,2000000,2,,,53.137787,50.080017
"Россия, Самара, поселок Кирзавод-6, улица Кирзавод-6, 10",33.0,2/2,1300000,1,2,1963,53.150231,50.138102
"Россия, Самара, Советская улица, 9Б",66.0,1/10,3800000,2,9.0,1987.0,53.22659,50.274125
"Россия, Самара, улица Мориса Тореза, 63",56.0,1/5,3050000,2,5.0,1962.0,53.196121,50.181994
"Россия, Самара, 6-я просека, 142",89.0,2/16,6150000,3,16,2009,53.247759,50.192298
"Россия, Самара, Нагорная улица, 140",53.0,3/10,2850000,2,10.0,1989.0,53.235974,50.254138
"Россия, Самара, посёлок Мехзавод, 1-й квартал, 38, подъезд 5",54.0,1/10,2600000,2,10,2016,53.308504,50.28883
"Россия, Самара, Самарская улица, 270, подъезд 3",75.0,3/6,7500000,3,7,1957,53.205123,50.122831
"Россия, Самара, 8-й квартал, 3",56.1,2/3,3070000,2,3.0,2014.0,53.295794,50.285588
"Россия, Самара, улица Лейтенанта Шмидта, 24",124.9,6/10,9000000,4,,,53.22329,50.153517
"Россия, Самарская область, Волжский район, жилой район Южный Город - 1, Николаевский проспект, 27, подъезд 3",34.1,6/9,1650000,1,10.0,2016.0,53.112698,50.147274
"Россия, Самара, Ново-Садовая улица, 321А",89.0,4/9,6300000,3,9.0,2010.0,53.244548,50.203347
"Россия, Самара, улица Гагарина, 17",44.1,2/5,2550000,2,5,1965,53.198732,50.166435
"Россия, Самара, Красноглинский район, микрорайон Крутые Ключи, улица Евгения Золотухина, 16",38.0,3/3,1598000,1,3.0,2012.0,53.316983,50.308575
"Россия, Самарская область, Волжский район, село Рождествено, Гаражная улица, 15",68.0,5/9,3720000,3,9,1972,53.244553,50.060649
"Россия, Самара, поселок Прибрежный, улица Никонова, 5",31.8,1/9,850000,2,9,1978,53.486662,49.85684
"Россия, Самара, Парадная улица, 1",46.0,3/3,1900000,2,2.0,1959.0,53.266452,50.237357
"Россия, Самара, улица Академика Платонова, 8",80.0,2/10,6199000,2,10.0,1.0,53.224115,50.174214
"Россия, Самара, Красноглинский район, посёлок Управленческий, Крайняя улица, 4",47.0,4/5,2200000,2,5.0,1977.0,53.342608,50.217405
"Россия, Самара, улица Стара Загора, 150",30.0,1/5,1670000,1,5.0,1970.0,53.247129,50.234132
"Россия, Самара, проспект Карла Маркса, 432",32.0,4/5,1690000,1,5,1968,53.243061,50.247212
"Россия, Самара, улица Дыбенко, 122",47.0,2/9,2750000,2,10,1993,53.207038,50.223882
"Россия, Самара, улица Мориса Тореза, 13А",73.0,9/9,4450000,3,9.0,1982.0,53.196024,50.168312
"Россия, Самара, посёлок Сухая Самарка, Белорусская улица, 34А",70.3,7/10,3000000,2,12,1995,53.147088,50.05879
"Россия, Самара, Красноглинский район, микрорайон Крутые Ключи, бульвар Ивана Финютина, 76",34.5,2/3,1590000,1,3.0,2014.0,53.327493,50.315439
"Россия, Самара, Краснодонская улица, 10",44.0,16/27,2244510,1,,,53.215769,50.261701
"Россия, Самара, Куйбышевский район, улица Нефтяников, 6",65.0,2/4,2200000,2,4.0,1956.0,53.112449,50.076568
"Россия, Самара, улица Зои Космодемьянской, 4",60.0,8/9,3400000,3,9,1979,53.258798,50.231707
"Россия, Самара, улица Мечникова, 5",48.2,8/18,3500000,1,19.0,2016.0,53.186339,50.134868
"Россия, Самара, улица Стара Загора, 279",63.5,2/5,2900000,3,5,1972,53.249429,50.255494
"Россия, Самара, улица Стара Загора, 103",63.0,5/5,3200000,3,5.0,1966.0,53.230455,50.217738
"Россия, Самара, улица Чкалова, 72",100.0,3/9,7300000,2,11.0,2015.0,53.201364,50.123424
"Россия, Самара, Ставропольская улица, 155",47.0,1/5,2599000,2,5,1974,53.231247,50.254389
"Россия, Самара, улица Тухачевского, 80",47.3,13/19,2650000,1,22.0,2017.0,53.195295,50.152053
"Россия, Самара, Красноглинский район, микрорайон Крутые Ключи, улица Евгения Золотухина, 21",46.0,3/3,2150000,2,3.0,2012.0,53.316068,50.310588
"Россия, Самара, Зубчаниновское шоссе, 165",30.1,5/5,1550000,1,5.0,1973.0,53.226789,50.292639
"Россия, Самара, 2-й Безымянный переулок, 4Б",52.0,5/5,2600000,2,5,1966,53.208138,50.23053
"Россия, Самара, посёлок Мехзавод, 1-й квартал, 50",39.0,1/10,1930000,1,,,53.306503,50.286809
"Россия, Самара, Самарская улица, 267",43.7,11/25,3500000,1,18.0,2012.0,53.204093,50.122301
"Россия, Самара, Отважная улица, 33",50.7,9/12,3750000,2,14,2011,53.208311,50.206769
"Россия, Самара, посёлок Соцгород, Пугачевский тракт, 19",30.0,1/5,1200000,1,5,1969,53.120421,50.087752
"Россия, Самара, Рыльская улица, 3",23.0,4/5,1650000,1,5.0,1983.0,53.199357,50.249996
"Россия, Самара, улица Аэропорт 2, 2",35.0,1/5,1500000,1,5.0,1991.0,53.251644,50.37682
"Россия, Самара, Силовая улица, 6",75.5,17/18,6150000,2,,,53.244203,50.204101
"Россия, Самарская область, Волжский район, жилой район Южный Город - 2, Губернаторская улица, 23",30.0,4/9,1620000,1,10,2017,53.092716,50.163273
"Россия, Самара, Красноармейская улица, 60",127.0,1/3,4690000,3,1.0,1917.0,53.191228,50.110569
"Россия, Самара, Минская улица, 35",68.0,11/12,3650000,3,12.0,1981.0,53.235192,50.246798
"Россия, Самара, посёлок Соцгород, Бакинская улица, 40",56.7,5/5,2600000,3,5,1960,53.118962,50.085335
"Россия, Самара, улица Стара Загора, 156, подъезд 1",120.0,3/16,7900000,4,16,2009,53.248702,50.23768
"Россия, Самара, Дачная улица, 15",44.7,15/16,3350000,1,16.0,1986.0,53.200328,50.141624
"Россия, Самара, посёлок Мехзавод, 1-й квартал, 53",88.0,9/10,3550000,3,,,53.307331,50.286109
"Россия, Самара, улица Лукачева, 10",76.0,14/22,6400000,2,22,2014,53.216998,50.166444
"Россия, Самара, проспект Кирова, 315",43.2,4/9,3150000,2,9.0,1971.0,53.248406,50.231958
"Россия, Самара, проспект Кирова, 235",44.0,4/5,2700000,2,5.0,1967.0,53.235085,50.24431
"Россия, Самара, улица Мориса Тореза, 123",38.0,8/9,1899000,1,9.0,1967.0,53.19495,50.204865
"Россия, Самара, улица Максима Горького, 37",140.0,3/7,9500000,3,7,1996,53.182578,50.076029
"Россия, Самара, Красноглинский район, посёлок Красная Глинка, 4-й квартал, 5",60.6,2/5,2400000,3,4,1960,53.391738,50.167773
"Россия, Самара, Зубчаниновское шоссе, 153",61.3,3/5,2700000,3,5.0,1975.0,53.228153,50.295613
"Россия, Самара, 6-я просека, 56",49.9,4/4,3993200,1,5.0,2017.0,53.250054,50.186566
"Россия, Самара, Волжский проспект, 15А",32.0,1/5,2700000,1,5.0,1962.0,53.203392,50.105556
"Россия, Самара, посёлок Рубежный, Охтинская улица, 16",34.1,2/2,1149000,1,2.0,1980.0,53.138332,50.2383
"Россия, Самарская область, Волжский район, село Рождествено, Ново-Садовая улица",129.2,14/17,10999000,3,17.0,2006.0,53.235095,50.054667
"Россия, Самара, Конноармейская улица, 13",101.7,3/16,8500000,3,14,2012,53.224185,50.153984
"Россия, Самара, посёлок Соцгород, Калининградская улица, 3",30.0,7/9,1100000,1,9,1979,53.116076,50.069677
"Россия, Самара, Галактионовская улица, 2",104.5,7/16,7550000,3,16.0,2008.0,53.18179,50.094893
"Россия, Самара, улица Мечникова, 5",37.5,19/22,1880000,1,19,2016,53.186339,50.134868
"Россия, Самара, Красноармейская улица, 74",108.2,4/12,7900000,3,11.0,2001.0,53.189533,50.118429
"Россия, Самара, проспект Карла Маркса, 4А",41.5,18/18,2550000,1,25.0,2015.0,53.191335,50.1345
"Россия, Самара, Центральная улица, 1",42.7,8/16,3550000,1,3.0,1963.0,53.219414,50.190366
"Россия, Самара, Аэродромная улица, 10",33.0,2/5,2070000,1,5,1962,53.191681,50.177709
"Россия, Самара, 6-я просека, 153",44.7,7/16,3200000,1,16.0,2005.0,53.245793,50.189064
"Россия, Самара, 5-я просека, 123",36.0,9/11,2750000,1,13,2016,53.242802,50.181131
"Россия, Самара, проспект Кирова, 36А, подъезд 1",33.9,5/9,1550000,2,9.0,1975.0,53.213925,50.266948
"Россия, Самара, посёлок Мехзавод, 2-й квартал, 35",26.0,1/2,1000000,1,,,53.300939,50.284923
"Россия, Самара, Чапаевская улица, 49",30.0,2/2,1600000,1,2.0,,53.182735,50.090842
"Россия, Самара, улица Мичурина, 143",61.0,7/9,4500000,3,9.0,1983.0,53.214367,50.164144
"Россия, Самара, Куйбышевский район, посёлок Совхоз Волгарь, Новокомсомольская улица, 9",78.0,1/5,3600000,4,5.0,1979.0,53.154362,50.089404
"Россия, Самара, улица Мечникова, 5",37.0,10/23,1790000,1,19,2016,53.186339,50.134868
"Россия, Самара, 5-я просека, 97А",54.0,3/16,3500000,1,None,None,53.242996,50.183269
"Россия, Самара, улица Ерошевского, 18",126.0,19/20,10500000,3,22.0,2008.0,53.215887,50.160982
"Россия, Самара, улица Мориса Тореза, 103, подъезд 6",34.8,6/10,2000000,1,9.0,1982.0,53.197011,50.20146
"Россия, Самара, Волжский проспект, 33А",57.0,3/5,5680000,2,5,1959,53.206628,50.113919
"Россия, Самара, посёлок Мехзавод, 13-й квартал, 2",61.0,1/2,2850000,3,2.0,1957.0,53.301891,50.274601
"Россия, Самара, 6-я просека, 137",97.0,12/16,5650000,3,14.0,2004.0,53.247328,50.188641
"Россия, Самара, проспект Карла Маркса, 243Б",37.0,2/10,2600000,1,10.0,1999.0,53.220347,50.199592
"Россия, Самара, улица 22 Партсъезда, 47",68.0,8/9,3600000,3,9.0,1987.0,53.218821,50.222382
"Россия, Самара, Октябрьский район, 3-й проезд, 55А",45.0,5/5,2300000,2,5,1977,53.207815,50.18203
"Россия, Самара, посёлок Сухая Самарка, Белорусская улица, 36",46.0,2/9,2050000,2,9,1993,53.146964,50.060326
"Россия, Самара, Революционная улица, 54",43.0,5/5,2983073,2,5.0,1965.0,53.211045,50.172714
"Россия, Самара, проспект Ленина, 2Б, подъезд 1",135.0,13/15,10100000,5,15,1997,53.204196,50.126397
"Россия, Самара, улица Советской Армии, 127",61.0,3/9,3500000,2,9.0,1987.0,53.214663,50.214073
"Россия, Самара, Ново-Вокзальная улица",43.0,1/5,2400000,2,5.0,1966.0,53.246935,50.202574
"Россия, Самара, Революционная улица, 148",38.0,12/16,2500000,1,9.0,1971.0,53.194114,50.181051
"Россия, Самара, Рыльская улица, 3А",49.0,1/5,2450000,2,5.0,1986.0,53.199778,50.251434
"Россия, Самара, Киевская улица, 15Б, подъезд 2",42.1,9/10,4100000,1,10,2002,53.197561,50.155008
"Россия, Самара, Солнечная улица, 8",39.0,14/25,3300000,1,25,2015,53.240964,50.186476
"Россия, Самара, Юбилейная улица, 7",61.3,3/5,2700000,4,5.0,1969.0,53.220244,50.273056
"Россия, Самара, Печерская улица, 25",64.0,18/23,4900000,2,2.0,1952.0,53.20343,50.182039
"Россия, Самара, Революционная улица, 4",66.0,17/24,4550000,1,1.0,1913.0,53.217257,50.163866
"Россия, Самара, Самарская улица, 203",77.0,3/5,5950000,3,6,1958,53.199562,50.112635
"Россия, Самара, Осетинская улица, 3",36.0,1/3,1750000,1,3,2013,53.154389,50.074726
"Россия, Самара, Воронежская улица, 1А",16.0,1/4,750000,1,4.0,1953.0,53.215596,50.257156
"Россия, Самара, улица Авроры, 94",33.0,8/9,1930000,1,9,1970,53.192582,50.190348
"Россия, Самара, улица Лукачева, 36А",55.0,4/5,2700000,2,5.0,,53.21406,50.170433
"Россия, Самара, Киевская улица, 15",46.0,4/10,3400000,1,10.0,2000.0,53.197076,50.155709
"Россия, Самара, Арцыбушевская улица, 34А",70.0,1/4,5850000,3,4.0,1948.0,53.188929,50.112365
"Россия, Самара, улица Шверника, 19",68.0,1/9,3600000,3,9,1988,53.244348,50.193672
"Россия, Самара, Республиканская улица, 62",27.0,1/9,1350000,1,9,1993,53.239563,50.277314
"Россия, Самара, Зубчаниновское шоссе, 120",31.3,3/3,1250000,1,5,1983,53.228881,50.29546
"Россия, Самара, Садовая улица, 200",112.0,5/9,8990000,3,9.0,2008.0,53.197723,50.110308
"Россия, Самара, проспект Карла Маркса, 4Б",38.0,14/24,2500000,1,25.0,2017.0,53.192107,50.134069
"Россия, Самарская область, Волжский район, СДТ Речник, Самарская улица",131.0,6/9,9500000,3,,1.0,53.140569,50.022606
"Россия, Самара, Вольская улица, 59",29.3,5/5,1650000,1,5.0,1979.0,53.216443,50.239342
"Россия, Самара, Перекопская улица, 7",43.4,2/4,2150000,2,4.0,1965.0,53.19515,50.211566
"Россия, Самара, улица Калинина, 41",43.0,1/2,1750000,2,2,1951,53.222659,50.245074
"Россия, Самарская область, Волжский район, жилой район Южный Город - 1, Земская улица, 3",37.0,2/5,1850000,1,5.0,2016.0,53.115892,50.149672
"Россия, Самара, Ташкентская улица, 210",68.0,7/9,3450000,3,9.0,1980.0,53.26315,50.234258
"Россия, Самара, Советский район, квартал 5-й посёлок Киркомбината, 11",47.0,5/5,1850000,2,2,1,53.176712,50.204056
"Россия, Самарская область, Волжский район, село Рождествено, Садовая улица",37.0,2/10,2550000,1,11,2014,53.239881,50.060515
"Россия, Самара, посёлок Мехзавод, 1-й квартал, 35, подъезд 3",78.0,1/10,5000000,3,,,53.309688,50.286648
"Россия, Самарская область, Волжский район, село Рождествено, Ново-Садовая улица",78.0,13/22,4999000,2,22.0,2014.0,53.235095,50.054667
"Россия, Самара, Минская улица, 32",31.0,5/5,1790000,1,5.0,1964.0,53.234206,50.247005
"Россия, Самара, проспект Масленникова, 35",56.8,1/3,3200000,2,3,1967,53.207184,50.159078
"Россия, Самарская область, Волжский район, жилой район Южный Город - 1, Николаевский проспект, 7",68.0,4/5,4000000,3,5.0,2014.0,53.11753,50.161171
"Россия, Самара, Партизанская улица, 158",47.0,6/10,2850000,1,10,2013,53.187623,50.189351
"Россия, Самарская область, Волжский район, СДТ Речник, Самарская улица",61.0,9/9,3799000,1,,1.0,53.140569,50.022606
"Россия, Самара, Киевская улица, 14",40.0,8/9,2850000,2,9.0,1990.0,53.19795,50.155988
"Россия, Самара, Путейская улица, 20, подъезд 1",13.0,1/5,850000,1,,,53.236928,50.28159
"Россия, Самара, поселок Кирзавод-6, Сиреневый переулок, 30",30.0,1/3,1100000,1,3,2010,53.149858,50.144112
"Россия, Самара, улица Дзержинского, 13Б",49.0,1/9,2760000,2,9,1978,53.19078,50.172822
"Россия, Самара, Осетинская улица, 4",37.5,7/16,1780000,1,17.0,2014.0,53.154827,50.075966
"Россия, Самара, Ленинградская улица, 63",57.1,3/3,4800000,2,3.0,1917.0,53.186005,50.096456
"Россия, Самара, 5-я просека, 95А",94.5,6/19,6890000,3,19.0,2009.0,53.24333,50.182335
"Россия, Самарская область, Волжский район, жилой район Южный Город - 1, Николаевский проспект, 11",50.0,3/5,2700000,2,5,2014,53.117076,50.158727
"Россия, Самара, посёлок Соцгород, Ново-Молодёжный переулок, 21",54.0,4/5,2300000,2,5.0,1976.0,53.121291,50.089997
"Россия, Самара, улица Максима Горького, 37",30.0,1/6,2750000,1,7.0,1996.0,53.182578,50.076029
"Россия, Самара, улица Победы, 4Б, подъезд 1",67.0,9/11,4950000,2,10,2006,53.20378,50.22523
"Россия, Самара, улица Врубеля, 15",95.0,9/24,6300000,2,24.0,2015.0,53.218993,50.167711
"Россия, Самара, посёлок Соцгород, Пугачевский тракт, 14",32.1,2/5,1550000,1,5,1965,53.110276,50.080799
"Россия, Самара, поселок Прибрежный, улица Никонова, 5",30.0,4/9,1180000,1,9.0,1978.0,53.486662,49.85684
"Россия, Самара, Корабельная улица, 3",44.9,2/2,1400000,2,2,1951,53.201984,50.179272
"Россия, Самара, Чернореченская улица, 32",59.0,1/9,4900000,3,9,1978,53.198041,50.141282
"Россия, Самара, улица Мечникова, 5",107.0,6/19,6350000,3,19.0,2016.0,53.186339,50.134868
"Россия, Самара, Московское шоссе, 286",69.3,9/12,3600000,3,12.0,1982.0,53.255076,50.227574
"Россия, Самара, посёлок Мехзавод, 12-й квартал, 5",31.0,2/5,1430000,1,5.0,1965.0,53.302193,50.276434
"Россия, Самара, Садовая улица, 263",122.0,6/7,9000000,3,7,1997,53.200285,50.116623
"Россия, Самара, Садовая улица, 225",92.0,5/10,8500000,3,10.0,2006.0,53.198478,50.112707
"Россия, Самара, Волжское шоссе, 119",46.5,4/14,2300000,1,14.0,2011.0,53.276495,50.263058
"Россия, Самара, улица Мечникова, 5",44.4,12/17,2664000,1,19.0,2016.0,53.186339,50.134868
"Россия, Самара, Хасановская улица, 7",49.1,4/5,1760000,2,5,1984,53.120686,50.093492
"Россия, Самара, Демократическая улица, 11, подъезд 2",70.5,6/12,3490000,3,12.0,1983.0,53.262892,50.2186
"Россия, Самара, Ставропольская улица, 200",80.0,4/10,4100000,4,10,1993,53.23081,50.250463
"Россия, Самарская область, Волжский район, село Рождествено, Ново-Садовая улица",31.0,24/25,2450000,0,None,None,53.235095,50.054667
"Россия, Самара, Красноглинский район, посёлок Управленческий, Крайняя улица, 11",49.2,8/9,2350000,2,5.0,1975.0,53.340016,50.223173
"Россия, Самара, Осетинская улица, 2",82.2,14/16,3730000,3,17.0,2014.0,53.155626,50.076064
"Россия, Самара, Ново-Вокзальная улица, 146",85.0,3/9,5300000,4,9.0,1976.0,53.241465,50.211342
"Россия, Самара, Воронежская улица, 36",43.0,1/2,1700000,2,2.0,1951.0,53.223333,50.246664
"Россия, Самара, улица 22 Партсъезда, 156, подъезд 1",31.6,4/5,1900000,1,5.0,1966.0,53.226935,50.207434
"Россия, Самара, улица 22 Партсъезда, 223",82.0,12/12,4400000,3,12.0,1989.0,53.238318,50.190465
"Россия, Самара, Ставропольская улица, 173",61.4,4/9,3300000,3,9,1988,53.233538,50.260758
"Россия, Самара, улица Георгия Ратнера, 13",46.2,4/5,2800000,2,5,1962,53.21001,50.225418
"Россия, Самара, Красноглинский район, микрорайон Крутые Ключи, бульвар Ивана Финютина, 37, подъезд 3",34.0,2/3,1550000,1,3,2011,53.320506,50.311468
"Россия, Самара, проспект Ленина, 1",69.0,6/10,5950000,4,10.0,1971.0,53.205167,50.133539
"Россия, Самара, улица Стара Загора, 100А",80.0,2/9,5990000,3,9.0,1978.0,53.237731,50.223559
"Россия, Самара, проспект Металлургов, 74",20.0,1/3,1200000,1,3,1953,53.232406,50.273972
"Россия, Самара, Ново-Садовая улица, 353А",47.0,1/16,3190000,1,9.0,1986.0,53.25326,50.21127
"Россия, Самара, Аэродромная улица, 61",46.0,3/5,2050000,2,5.0,1963.0,53.191184,50.194804
"Россия, Самара, улица Свободы, 155",53.0,9/9,3550000,2,9.0,1988.0,53.227021,50.272975
"Россия, Самара, проспект Кирова, 417",69.8,1/12,3550000,3,12,1983,53.259224,50.218834
"Россия, Самара, улица Алексея Толстого, 75",66.0,5/7,5700000,2,None,None,53.188006,50.084536
"Россия, Самара, Аэродромная улица, 100",35.5,2/9,1990000,1,9.0,1967.0,53.194729,50.207201
"Россия, Самара, улица Лукачева, 42",47.0,1/5,2500000,2,5.0,1974.0,53.214006,50.172139
"Россия, Самара, Хасановская улица, 14",49.0,2/5,2148500,2,5.0,1981.0,53.122739,50.093438
"Россия, Самара, Ташкентская улица, 162",34.5,9/9,1580000,2,9.0,1975.0,53.256148,50.24069
"Россия, Самара, проспект Карла Маркса, 4Б",44.4,17/24,2820670,1,25,2017,53.192107,50.134069
"Россия, Самара, Вольская улица, 107",43.0,1/2,1400000,1,None,None,53.222794,50.251658
"Россия, Самара, Днепровский проезд, 1",65.5,3/5,3050000,3,5,1972,53.224972,50.291238
"Россия, Самара, посёлок Мехзавод, 1-й квартал, 35",47.0,5/10,2550000,1,,,53.309537,50.286827
"Россия, Самарская область, Волжский район, село Рождествено, Ново-Садовая улица",47.0,4/17,4500000,1,17.0,2006.0,53.235095,50.054667
"Россия, Самара, проспект Карла Маркса, 352",21.0,3/5,1450000,1,5.0,1971.0,53.237709,50.234698
"Россия, Самара, 5-я просека, 110",80.0,5/25,5600000,3,27,2015,53.243071,50.187824
"Россия, Самара, улица Максима Горького, 115",51.7,2/4,4200000,2,,,53.190208,50.084437
"Россия, Самара, Бобруйская улица, 89Б",42.9,3/9,2600000,1,9,1999,53.188622,50.215231
"Россия, Самара, улица Советской Армии, 101",75.0,5/12,3490000,3,12.0,1994.0,53.207335,50.214468
"Россия, Самарская область, Волжский район, село Рождествено, Ново-Садовая улица",58.5,8/16,3180000,1,,1.0,53.235095,50.054667
"Россия, Самара, улица Советской Армии, 133",44.0,5/5,2500000,2,5.0,1968.0,53.21578,50.213677
"Россия, Самара, Южный проезд, 144",45.0,1/2,1200000,2,2,1956,53.184283,50.211171
"Россия, Самара, улица Мичурина, 143",55.0,1/9,3950000,2,9.0,1983.0,53.214367,50.164144
"Россия, Самара, Ново-Вокзальная улица, 215, подъезд 1",60.0,2/9,2950000,3,9.0,1973.0,53.240776,50.214046
"Россия, Самара, проспект Масленникова, 41",57.9,4/4,3050000,2,4,1957,53.206709,50.160937
"Россия, Самара, посёлок Соцгород, Калининградская улица, 3",30.0,9/9,1260000,1,9.0,1979.0,53.116076,50.069677
"Россия, Самара, улица Георгия Димитрова, 108",43.0,13/24,3050000,1,26.0,2015.0,53.260328,50.223757
"Россия, Самара, Красноглинский район, посёлок Красная Глинка, 4-й квартал, 9",36.6,9/10,1550000,1,,,53.391454,50.168519
"Россия, Самара, проспект Юных Пионеров, 61, подъезд 1",12.0,1/5,1150000,1,5,1969,53.217494,50.231257
"Россия, Самара, улица Льва Толстого, 128",95.0,2/2,2850000,5,2,1917,53.187823,50.113237
"Россия, Самара, 7-я просека, 106",38.0,7/19,2700000,1,21,2014,53.255894,50.200499
"Россия, Самара, Олимпийская улица, 18",47.0,8/10,2400000,2,9.0,1986.0,53.236901,50.287735
"Россия, Самара, проспект Карла Маркса, 23",76.0,2/12,4700000,3,12.0,1991.0,53.191934,50.139548
"Россия, Самара, улица Стара Загора, 98",60.0,2/9,3200000,3,9.0,1980.0,53.236949,50.222598
"Россия, Самара, Краснодонская улица, 10",70.0,20/27,3710000,2,,,53.215769,50.261701
"Россия, Самара, Рабочая улица, 43",85.0,5/10,8500000,2,,1917.0,53.192798,50.112114
"Россия, Самара, проспект Кирова, 318",136.7,14/16,9569000,5,16,2004,53.254041,50.219166
"Россия, Самара, Пионерская улица, 100",105.0,3/15,7509900,3,None,1,53.181466,50.093995
"Россия, Самара, улица Стара Загора, 31",43.3,7/9,3600000,2,9,1977,53.226439,50.202502
"Россия, Самара, 7-я просека, 102",74.0,1/19,5000000,3,19.0,2014.0,53.256234,50.198469
"Россия, Самара, улица Тухачевского, 54",38.0,8/9,2200000,1,9.0,1986.0,53.191875,50.150418
"Россия, Самара, Московское шоссе, 161",85.0,5/12,4300000,3,12.0,1982.0,53.245798,50.217217
"Россия, Самара, посёлок Мехзавод, 14-й квартал, 4",46.0,3/5,2000000,2,5.0,1966.0,53.30166,50.270217
"Россия, Самара, посёлок Соцгород, Долотный переулок, 10",30.5,1/5,1450000,1,5.0,1972.0,53.121075,50.084455
"Россия, Самара, посёлок Мехзавод, 11-й квартал, 19",32.0,4/4,1420000,1,None,None,53.297672,50.289908
"Россия, Самара, Красноглинский район, посёлок Управленческий, улица Сергея Лазо, 46А",32.0,1/5,1600000,1,5,1972,53.347983,50.226999
"Россия, Самара, Ново-Вокзальная улица, 161",76.0,9/10,4390000,2,10,1999,53.233538,50.2247
"Россия, Самара, улица Алексея Толстого, 94",60.0,2/2,2800000,3,2.0,1.0,53.187613,50.083709
"Россия, Самара, Цеховая улица, 181",55.0,1/5,2100000,3,5.0,1971.0,53.248632,50.312762
"Россия, Самара, Октябрьский район, 3-й проезд, 50",44.0,15/16,2429800,1,,,53.204255,50.180539
"Россия, Самара, 6-я просека, 142, подъезд 2",63.0,2/16,3600000,2,16,2009,53.247765,50.192414
"Россия, Самара, Самарская улица, 52",40.0,1/4,2690000,2,4.0,1941.0,53.187926,50.101631
"Россия, Самара, Пензенская улица, 51",31.0,5/9,2100000,1,9,1988,53.190192,50.140573
"Россия, Самара, Красноглинский район, микрорайон Крутые Ключи, бульвар Ивана Финютина, 23, подъезд 2",43.6,1/3,2090000,2,3,2011,53.319113,50.309177
"Россия, Самара, проспект Ленина, 4",51.2,3/12,4600000,2,12.0,1969.0,53.206116,50.130323
"Россия, Самара, Аэродромная улица, 7",32.0,4/5,1950000,1,5.0,1962.0,53.190969,50.176568
"Россия, Самара, улица Стара Загора, 209",58.0,5/9,2800000,2,9.0,1976.0,53.244882,50.240869
"Россия, Самара, улица Победы, 2",35.2,4/5,1780000,1,5.0,1961.0,53.202351,50.224861
"Россия, Самара, Самарская улица, 91",73.0,2/2,1950000,5,1.0,1888.0,53.188476,50.102619
"Россия, Самарская область, Волжский район, посёлок Усинский, Юбилейная улица",50.0,1/5,2600000,2,5,1981,53.248492,50.077268
"Россия, Самарская область, Волжский район, сельское поселение Лопатино, село Лопатино, Советская улица",63.0,2/2,2000000,3,2.0,1977.0,53.077874,50.217226
"Россия, Самара, Заводское шоссе, 59",21.0,9/9,1350000,1,9,1983,53.208268,50.282506
"Россия, Самара, улица Дзержинского, 13",30.0,1/9,1449999,1,9,1978,53.190747,50.173648
"Россия, Самара, Партизанская улица, 179",31.0,1/5,1900000,1,,1.0,53.18683,50.200823
"Россия, Самара, Ново-Вокзальная улица, 279",33.0,3/9,2420000,1,9.0,1990.0,53.250189,50.201263
"Россия, Самара, Печерская улица, 29",41.0,15/22,3250000,2,24.0,2014.0,53.203419,50.183961
"Россия, Самара, посёлок Соцгород, Пугачевский тракт, 45, подъезд 1",59.0,1/9,2500000,3,9,1980,53.123901,50.09298
"Россия, Самара, улица Мира, 33",45.0,2/3,2250000,2,3,2014,53.310511,50.308414
"Россия, Самара, улица Советской Армии, 23",49.1,3/9,3300000,2,9.0,1960.0,53.198716,50.214531
"Россия, Самара, улица Промышленности, 176",40.5,10/11,2880000,1,11,2015,53.186852,50.204676
"Россия, Самара, улица Мира, 51",29.1,1/3,1100000,1,3.0,2015.0,53.309026,50.308009
"Россия, Самара, Красноглинский район, посёлок Управленческий, улица Ногина, 7",33.0,4/5,1430000,1,5.0,1971.0,53.347785,50.220666
"Россия, Самара, улица Аминева, 3",73.2,1/9,3600000,3,9.0,1986.0,53.246725,50.212546
"Россия, Самара, Садовая улица, 156",191.5,7/10,12500000,4,9.0,1999.0,53.194416,50.108449
"Россия, Самара, улица 22 Партсъезда, 46",65.0,5/9,3750000,3,9,1992,53.214027,50.224763
"Россия, Самара, Красноглинский район, посёлок Управленческий, Красноглинское шоссе",44.2,8/10,2350000,1,,,53.351999,50.2141
"Россия, Самара, 5-я просека, 110А",50.0,3/9,3730000,1,11,2015,53.24285,50.186521
"Россия, Самара, 5-я просека, 115",67.0,3/19,5500000,3,21,2016,53.241304,50.182668
"Россия, Самарская область, Волжский район, жилой район Южный Город - 1, Земская улица, 21",30.0,3/9,1480000,1,10.0,2017.0,53.110849,50.138084
"Россия, Самара, проспект Карла Маркса, 500",46.0,4/5,1910000,2,5.0,1972.0,53.249693,50.261046
"Россия, Самара, Финская улица, 96",145.0,5/6,7500000,4,6.0,1.0,53.228816,50.184662
"Россия, Самара, Ташкентская улица, 246",71.0,10/10,4600000,3,10,2001,53.269085,50.219723
"Россия, Самара, проспект Карла Маркса, 243",74.0,4/10,3700000,3,10.0,1999.0,53.220605,50.199978
"Россия, Самара, улица Фрунзе, 101А",90.0,3/5,7000000,4,5,1991,53.187785,50.092737
"Россия, Самара, улица 22 Партсъезда, 194",30.0,8/9,2150000,1,9.0,1993.0,53.238442,50.189064
"Россия, Самарская область, Волжский район, село Рождествено, Ново-Садовая улица",43.0,1/10,2650000,1,5,1962,53.235095,50.054667
"Россия, Самара, улица Промышленности, 315",28.5,2/5,1800000,1,5.0,1977.0,53.199465,50.227979
"Россия, Самарская область, городской округ Жигулёвск, село Богатырь, улица Чехова, 18",30.2,4/5,990000,1,5.0,1991.0,53.42784,49.959472
"Россия, Самара, Ленинская улица, 117",60.6,3/4,5500000,3,4.0,1953.0,53.191767,50.109976
"Россия, Самара, улица Осипенко, 41А",139.0,12/16,10250000,4,15,2006,53.197232,50.147606
"Россия, Самара, улица Елизарова, 58, подъезд 5",58.0,4/4,2899000,2,4,1960,53.232379,50.27558
"Россия, Самара, улица Стара Загора, 156",53.0,5/16,3700000,2,16.0,2009.0,53.248487,50.237501
"Россия, Самара, поселок Прибрежный, Парусная улица, 24, подъезд 1",50.0,1/5,1750000,3,5.0,1977.0,53.489802,49.851531
"Россия, Самарская область, Волжский район, посёлок городского типа Смышляевка, Демократическая улица",47.0,2/3,2500000,1,3.0,2014.0,53.250459,50.388292
"Россия, Самара, Революционная улица, 5",49.0,5/20,3800000,1,20,2009,53.21627,50.164045
"Россия, Самара, Воронежская улица, 206",46.0,4/5,2797000,2,5.0,1967.0,53.240452,50.219364
"Россия, Самара, улица Свободы, 161",39.4,3/9,2000000,1,9.0,1993.0,53.228304,50.273847
"Россия, Самарская область, Волжский район, село Рождествено, Ново-Садовая улица",50.0,9/24,3150000,1,None,None,53.235095,50.054667
"Россия, Самара, проспект Карла Маркса, 354",31.0,3/5,2150000,1,5,1968,53.237122,50.235956
"Россия, Самара, проспект Металлургов, 23",34.0,5/9,2300000,1,9.0,1974.0,53.228347,50.266301
"Россия, Самара, Московское шоссе, 123, подъезд 1",30.0,1/9,1700000,1,9.0,1977.0,53.237542,50.208665
"Россия, Самара, улица Красных Коммунаров, 19Б",45.1,5/10,2405333,1,10,1992,53.210765,50.256051
"Россия, Самара, поселок Кряж, Северная улица, 12",30.0,1/2,1000000,1,2.0,1962.0,53.127089,50.106517
"Россия, Самара, проспект Карла Маркса, 195",44.0,3/5,2149000,2,5.0,1963.0,53.211347,50.182964
"Россия, Самара, Солнечная улица, 4, подъезд 3",44.7,17/17,3650000,1,20.0,2012.0,53.240835,50.184536
"Россия, Самарская область, Волжский район, МСПП Рубежный, улица Матросова",43.1,5/5,2070000,2,5,1961,53.134356,50.25023
"Россия, Самара, Вольская улица, 19",60.0,2/5,3490000,3,5,1963,53.214701,50.23442
"Россия, Самара, Мирная улица, 157",48.0,4/5,2300000,2,5.0,1967.0,53.2364,50.244247
"Россия, Самара, улица Фадеева, 67, подъезд 3",45.9,9/9,2800000,2,9.0,1971.0,53.237354,50.215375
"Россия, Самара, улица Тухачевского, 40А",50.0,21/24,3250000,1,12,1985,53.189706,50.148199
"Россия, Самара, Магнитогорская улица, 5",99.0,7/10,6150000,3,10.0,1996.0,53.198311,50.158162
"Россия, Самара, улица Аэропорт 2, 2",53.0,4/5,2650000,2,5,1995,53.251644,50.37682
"Россия, Самарская область, Волжский район, посёлок городского типа Петра Дубрава, улица Строителей, 13",74.9,1/9,2950000,2,9.0,1974.0,53.291197,50.365079
"Россия, городской округ Самара, поселок Берёза, 4-й квартал, 12",36.9,1/5,1600000,2,5.0,1977.0,53.516473,50.136521
"Россия, Самара, улица Стара Загора, 228",60.6,9/9,3000000,3,9,1978,53.251488,50.253338
"Россия, Самара, Владимирская улица, 38",47.0,1/9,2980000,2,,,53.197232,50.137905
"Россия, Самара, Московское шоссе, 57",96.0,18/19,6250000,3,21,2009,53.223802,50.193699
"Россия, Самара, улица Советской Армии, 152",42.5,5/5,2800000,2,5.0,1967.0,53.217198,50.206922
"Россия, Самарская область, Волжский район, село Рождествено, улица Фрунзе",38.0,2/5,3500000,1,7.0,1994.0,53.246261,50.062689
"Россия, Самара, улица Свободы, 67, подъезд 3",22.0,1/5,1400000,1,5.0,1970.0,53.211277,50.236504
"Россия, Самара, улица Победы, 90А",82.4,2/5,4500000,3,5,1959,53.212458,50.245091
"Россия, Самара, улица Дыбенко, 118А",55.3,4/10,4600000,2,10.0,1994.0,53.208467,50.218403
"Россия, Самара, проспект Карла Маркса, 4Б",72.6,1/24,3850000,2,25,2017,53.192107,50.134069
"Россия, Самара, Ставропольская улица, 157",45.1,1/5,2150000,2,5.0,1974.0,53.231489,50.25491
"Россия, Самарская область, Волжский район, жилой район Южный Город - 1, Николаевский проспект, 35",53.0,4/8,2950000,2,9.0,2017.0,53.111174,50.142414
"Россия, Самара, поселок Кирзавод-6, Сиреневый переулок, 24",50.0,3/3,1710000,2,3,2010,53.150247,50.142746
"Россия, Самарская область, Волжский район, посёлок Усинский, Больничная улица",30.1,2/9,2000000,1,9.0,1982.0,53.247118,50.076684
"Россия, Самара, улица Промышленности, 311",58.0,5/5,3120000,3,5,1971,53.199724,50.227485
"Россия, Самара, улица Урицкого, 29",42.0,3/5,2600000,2,,1.0,53.188325,50.13503
"Россия, Самара, улица Карла Либкнехта, 8",43.1,12/23,2900000,1,22.0,2015.0,53.224266,50.151757
"Россия, Самара, Солнечная улица, 53",180.0,5/14,12000000,3,18,2010,53.259886,50.207713
"Россия, Самара, улица Свободы, 186",40.8,2/5,2200000,2,5.0,1968.0,53.230212,50.275158
"Россия, Самара, посёлок Соцгород, Пугачевский тракт, 45",44.0,9/9,1900000,2,9.0,1980.0,53.123944,50.092432
"Россия, Самара, улица Промышленности, 295",52.8,1/5,2800000,3,5,1970,53.196871,50.223173
"Россия, Самара, проспект Кирова, 222",32.0,5/5,1800000,1,5,1967,53.241891,50.231024
"Россия, Самара, 5-я просека, 125",83.0,12/13,5400000,3,16.0,2017.0,53.243341,50.180053
"Россия, Самара, посёлок Рубежный, улица Воздушного Флота, 9",40.0,2/2,1250000,2,2.0,1979.0,53.136787,50.240034
"Россия, Самара, Театральный проезд, 12",30.0,2/2,1650000,1,2,1942,53.219177,50.25712
"Россия, Самара, улица Земеца, 26А",23.0,5/5,1000000,1,5.0,1973.0,53.213871,50.296628
"Россия, Самара, Каховская улица, 72",47.0,2/2,1500000,2,2.0,1950.0,53.230066,50.252251
"Россия, Самара, поселок Прибрежный, Парусная улица, 21",67.0,5/9,3300000,3,10,1,53.488526,49.853183
"Россия, Самара, проспект Кирова, 44",55.0,2/3,2990000,2,,,53.217958,50.263821
"Россия, Самара, Ново-Вокзальная улица, 271",78.7,4/12,5550000,3,12.0,1991.0,53.249715,50.203976
"Россия, Самара, улица Урицкого, 28",76.5,9/12,4450000,3,12.0,1988.0,53.189695,50.136728
"Россия, Самара, проспект Кирова, 348",80.0,8/16,5400000,2,16,2012,53.259261,50.21056
"Россия, Самара, улица Бубнова, 11",71.4,2/9,3590000,3,9,1982,53.25632,50.222984
"Россия, Самара, улица Мориса Тореза, 9",31.0,2/5,1810000,1,,1.0,53.19495,50.167019
"Россия, Самара, Черемшанская улица, 139",79.0,5/9,3850000,4,5,1964,53.235968,50.251559
"Россия, Самара, улица Победы, 8Г",38.5,5/12,2700000,1,12.0,1980.0,53.204487,50.228554
"Россия, Самара, улица Мечникова, 5",50.0,2/19,2500000,1,19.0,2016.0,53.186339,50.134868
"Россия, Самара, посёлок Мехзавод, 7-й квартал, 4",45.0,5/5,1890000,2,,,53.296892,50.284815
"Россия, Самара, Ленинградская улица, 72",98.0,5/5,9800000,4,5,1935,53.186296,50.097382
"Россия, Самара, проспект Карла Маркса, 480",70.0,1/9,3149000,3,9.0,1972.0,53.247689,50.259869
"Россия, Самара, Ново-Вокзальная улица, 191",47.7,4/5,2500000,2,5.0,1971.0,53.234788,50.2224
"Россия, Самара, улица Стара Загора, 253",44.4,5/9,2800000,2,9,1975,53.247102,50.2451
"Россия, Самара, Севастопольская улица, 30",19.0,1/4,730000,1,4,1960,53.222433,50.263965
"Россия, Самара, Олимпийская улица, 51",45.0,3/4,2050000,2,4.0,1965.0,53.235284,50.288265
"Россия, Самара, Революционная улица, 101А",110.0,3/9,6800000,3,11.0,2016.0,53.206677,50.175077
"Россия, Самара, улица Красных Коммунаров, 15",68.0,3/9,4200000,3,9,1996,53.209988,50.253724
"Россия, Самара, Чернореченская улица, 8к2А",70.8,5/5,3795000,3,5.0,1989.0,53.195457,50.129424
"Россия, Самара, улица Зои Космодемьянской, 21",87.0,12/16,6000000,2,16.0,2010.0,53.261313,50.225823
"Россия, Самара, улица Энтузиастов, 82",63.0,2/2,2450000,3,2.0,1958.0,53.215704,50.196061
"Россия, Самара, Ново-Садовая улица, 347А",46.4,8/24,3300000,1,24,2010,53.252183,50.209276
"Россия, Самара, переулок Юрия Павлова, 7А",46.0,8/10,3150000,1,2,1952,53.221403,50.253194
"Россия, Самара, Солнечная улица, 14",40.0,7/19,2900000,1,,,53.241509,50.185524
"Россия, Самара, проспект Кирова, 313",58.0,3/9,2950000,3,9.0,1970.0,53.247845,50.231841
"Россия, Самара, Севастопольская улица, 39",22.0,1/5,1280000,1,5,1969,53.225538,50.261872
"Россия, Самара, Ново-Садовая улица, 106Н",57.0,15/22,5900000,1,22.0,2014.0,53.222039,50.153454
"Россия, Самара, улица Виталия Талабаева, 2",40.0,6/16,2160000,1,,,53.146748,50.077151
"Россия, Самара, Гвардейская улица, 24",61.0,3/5,3800000,3,5,1964,53.237725,50.281383
"Россия, городской округ Самара, поселок Берёза, 3-й квартал, 7",67.0,1/5,2550000,3,5.0,1976.0,53.518031,50.142414
"Россия, Самара, Ташкентская улица, 98",31.4,5/5,1510000,1,5,1969,53.245685,50.24873
"Россия, Самара, Ново-Вокзальная улица, 20",44.0,5/5,2500000,2,5.0,1960.0,53.2142,50.245029
"Россия, Самара, улица Победы, 97А",73.0,2/5,3250000,3,5.0,1955.0,53.213412,50.251452
"Россия, Самара, Московское шоссе, 49",330.0,25/25,10999999,3,25.0,2013.0,53.22343,50.192046
"Россия, Самара, Садовая улица, 335",110.0,3/10,8700000,3,10,2007,53.203112,50.123397
"Россия, Самара, посёлок Соцгород, Долотный переулок, 24",51.0,4/5,1850000,2,5.0,1979.0,53.119643,50.089674
"Россия, Самара, Гвардейская улица, 21",44.0,1/5,2560000,2,9.0,1975.0,53.238582,50.282713
"Россия, Самара, Ташкентская улица, 186А",90.0,4/12,5100000,2,12,2001,53.256956,50.235839
"Россия, Самара, Ново-Садовая улица, 347А",72.0,17/24,4300000,2,24,2010,53.252183,50.209276
"Россия, Самара, улица Стара Загора, 100",55.1,1/9,4600000,2,9.0,1978.0,53.237186,50.223981
"Россия, Самарская область, Волжский район, село Черноречье, улица Победы",32.0,4/5,1550000,1,19.0,2007.0,53.160766,50.374575
"Россия, Самарская область, Волжский район, село Рождествено, Советская улица, 71",71.0,5/9,4550000,3,9.0,2003.0,53.235429,50.067755
"Россия, Самара, Владимирская улица, 46Б",85.4,11/16,6650000,4,9.0,1979.0,53.194265,50.140599
"Россия, Самара, Ново-Садовая улица, 333",65.0,4/5,3730000,3,5,1986,53.24958,50.207865
"Россия, Самара, улица Гагарина, 167, подъезд 2",45.8,5/5,1920000,2,5.0,1961.0,53.201483,50.230108
"Россия, Самарская область, Волжский район, жилой район Южный Город - 1, Земская улица, 3",58.5,5/5,2800000,2,5,2016,53.115892,50.149672
"Россия, Самара, Красноглинский район, посёлок Управленческий, улица Парижской Коммуны, 23",54.0,1/10,2450000,2,None,None,53.350687,50.212555
"Россия, Самара, 6-я просека, 142",89.0,2/16,6150000,3,16.0,2009.0,53.247759,50.192298
"Россия, Самара, Ташкентская улица, 196",84.3,16/17,5279000,3,16.0,2000.0,53.259331,50.239944
"Россия, Самара, Конноармейская улица, 13",103.5,3/14,7900000,3,14.0,2012.0,53.224185,50.153984
"Россия, Самара, Черемшанская улица, 246",43.0,8/9,2390000,2,9.0,1973.0,53.245728,50.265789
"Россия, Самара, Ленинская улица, 302, подъезд 1",70.1,12/14,9200000,2,15,2010,53.20254,50.123567
"Россия, Самара, Парковый переулок, 5",88.0,10/10,6500000,2,14,2010,53.224088,50.176083
"Россия, Самара, Владимирская улица, 30",22.0,8/9,1800000,1,9.0,1978.0,53.197615,50.135659
"Россия, Самарская область, Волжский район, село Рождествено, Гаражная улица, 15",68.0,5/9,3720000,3,9.0,1972.0,53.244553,50.060649
"Россия, Самара, посёлок Сухая Самарка, Белорусская улица, 87к1",65.4,9/10,2800000,3,10,2002,53.141287,50.043096
"Россия, Самара, Октябрьский район, 3-й проезд, 50",46.0,16/19,2400000,1,,,53.204255,50.180539
"Россия, Самара, Ленинская улица, 202",110.0,8/10,7900000,3,10.0,1999.0,53.197059,50.112608
"Россия, Самара, поселок Прибрежный, Звёздная улица, 17",69.3,4/4,2500000,4,10.0,1993.0,53.491575,49.848431
"Россия, Самара, Вятская улица, 11",30.0,1/5,1580000,1,5,1980,53.199325,50.2489
"Россия, Самара, улица Шверника, 17",68.5,5/9,4650000,3,9,1989,53.24458,50.194453
"Россия, Самара, улица Дыбенко, 122",47.0,2/9,2750000,2,10.0,1993.0,53.207038,50.223882
"Россия, Самара, Пролетарская улица, 177А",41.5,3/6,2980000,1,5.0,1962.0,53.202664,50.157209
"Россия, Самара, проспект Карла Маркса, 126",56.0,4/5,3300000,3,5,1963,53.201084,50.156572
"Россия, Самара, 5-я просека, 109",47.0,3/18,3150000,1,18,2015,53.242031,50.184015
"Россия, Самара, проспект Карла Маркса, 350",31.0,4/5,2250000,1,5.0,1967.0,53.23689,50.235462
"Россия, Самарская область, Волжский район, жилой район Южный Город - 1, Земская улица, 17",32.0,2/9,1630000,1,10.0,2015.0,53.11353,50.143223
"Россия, Самара, поселок Кирзавод-6, Сиреневый переулок, 14",26.0,3/3,960000,1,3,2010,53.150701,50.140608
"Россия, Самара, улица Советской Армии, 119, подъезд 2",73.2,10/10,4380000,3,10.0,1994.0,53.209891,50.21542
"Россия, Самара, улица Зои Космодемьянской, 4",60.0,8/9,3400000,3,9.0,1979.0,53.258798,50.231707
"Россия, Самара, улица Мечникова, 5",102.0,10/16,5500000,3,19.0,2016.0,53.186339,50.134868
"Россия, Самара, улица Алексея Толстого, 75",46.0,2/7,4499900,1,None,None,53.188006,50.084536
"Россия, Самара, Виноградная улица, 4",31.0,3/3,1400000,1,3.0,1962.0,53.196698,50.212932
"Россия, Самарская область, Волжский район, жилой район Южный Город - 1, улица Лета, 6, подъезд 2",34.6,1/5,1550000,1,5.0,2014.0,53.116433,50.160551
"Россия, Самара, улица Георгия Димитрова, 67",58.7,9/9,3600000,3,9,1971,53.25548,50.233916
"Россия, Самарская область, Волжский район, жилой район Южный Город - 1, Земская улица, 19",30.0,3/9,1412000,1,9.0,2015.0,53.113341,50.142486
"Россия, Самара, улица Водников, 28/30",30.0,4/15,1650000,1,16,2004,53.181342,50.076451
"Россия, Самара, 2-й Безымянный переулок, 4Б",52.0,5/5,2600000,2,5.0,1966.0,53.208138,50.23053
"Россия, Самара, Красноглинский район, посёлок Управленческий, Коптевская улица, 1",30.0,2/5,1600000,1,5.0,1971.0,53.342339,50.227493
"Россия, Самара, Демократическая улица, 12",57.0,5/12,3100000,2,12,1992,53.263947,50.216238
"Россия, Самара, Красноглинский район, микрорайон Крутые Ключи, бульвар Ивана Финютина, 27",36.0,3/3,1499000,1,3,2011,53.319511,50.30977
"Россия, Самара, улица Георгия Димитрова, 74Ак3",60.0,14/16,3100000,2,5,1970,53.251854,50.230629
"Россия, Самара, Красноглинский район, посёлок Управленческий, улица Ногина, 5",60.0,3/5,2750000,3,5.0,1968.0,53.347795,50.221403
"Россия, Самара, улица Свободы, 18",32.0,5/5,1550000,1,5.0,1963.0,53.212636,50.237644
"Россия, Самара, Вольская улица, 77",40.0,3/16,2650000,1,18.0,2007.0,53.218357,50.243295
"Россия, Самарская область, Волжский район, жилой район Южный Город - 2, Губернаторская улица, 23",30.0,4/9,1620000,1,10.0,2017.0,53.092716,50.163273
"Россия, Самара, Томашевский тупик, 3",43.5,9/18,2800000,1,19.0,2007.0,53.218557,50.247544
"Россия, Самара, улица Гагарина, 3",44.0,2/5,2750000,2,5,1962,53.202599,50.159545
"Россия, Самара, Владимирская улица, 29",47.4,4/9,3600000,2,9,1987,53.193488,50.13786
"Россия, Самара, Вольская улица, 81",42.2,5/10,2800000,1,None,1,53.219317,50.244238
"Россия, Самара, Вольская улица, 50",31.0,1/5,1550000,1,4.0,1962.0,53.215887,50.23442
"Россия, Самара, Красноглинский район, посёлок Управленческий, Крайняя улица, 16",57.0,4/5,2400000,3,5.0,1974.0,53.340565,50.222445
"Россия, Самарская область, Волжский район, село Рождествено, Ново-Садовая улица",40.0,1/12,2350000,1,15.0,1982.0,53.235095,50.054667
"Россия, Самара, Теннисная улица, 25Б",35.0,4/9,1600000,1,5,1973,53.217397,50.273317
"Россия, Самара, улица Советской Армии, 238В",48.0,11/17,3700000,1,,1.0,53.237036,50.180377
"Россия, Самара, улица Лукачева, 10",76.0,14/22,6400000,2,22.0,2014.0,53.216998,50.166444
"Россия, Самара, Красноглинский район, микрорайон Крутые Ключи, бульвар Ивана Финютина, 52",30.5,1/3,1450000,1,3,2014,53.325379,50.313238
"Россия, Самара, Ташкентская улица, 240",64.0,6/9,3680000,3,9,1986,53.267836,50.224287
"Россия, Самара, Щигровский переулок, 12",45.1,6/9,2450000,2,9.0,1999.0,53.207329,50.284276
"Россия, Самара, Волжское шоссе, 123, подъезд 2",51.0,8/10,4050000,2,15.0,2011.0,53.276511,50.264324
"Россия, Самарская область, Волжский район, МСПП Рубежный, улица Матросова",43.9,5/5,2150000,2,5.0,1960.0,53.134356,50.25023
"Россия, Самара, улица Виталия Талабаева, 6",64.2,1/16,2503800,2,,,53.147374,50.078957
"Россия, Самара, поселок Кряж, Таганская улица, 40",40.0,1/2,790000,2,2.0,1961.0,53.144112,50.134482
"Россия, Самара, Конноармейская улица, 13",101.7,3/16,8500000,3,14.0,2012.0,53.224185,50.153984
"Россия, Самара, 5-я просека, 99Б",51.4,9/22,3550000,1,23.0,2008.0,53.243486,50.184168
"Россия, Самара, Красноглинский район, микрорайон Крутые Ключи, бульвар Ивана Финютина, 34",46.0,3/3,2350000,2,3,2013,53.323728,50.313112
"Россия, Самара, Вилоновская улица, 18А",185.0,4/24,19900000,4,26,2007,53.198581,50.103113
"Россия, Самара, посёлок Мехзавод, 11-й квартал, 24",44.0,1/5,1650000,2,5,1968,53.294653,50.289351
"Россия, Самара, 5-я просека, 103",50.0,9/9,2950000,1,9.0,2005.0,53.244462,50.186809
"Россия, Самара, улица Мечникова, 5",80.0,12/19,4500000,3,19.0,2016.0,53.186339,50.134868
"Россия, Самара, проспект Карла Маркса, 195",31.2,5/5,2200000,1,5.0,1963.0,53.211347,50.182964
"Россия, Самара, Красноглинский район, микрорайон Крутые Ключи, улица Виталия Жалнина, 18",46.0,1/3,2129000,2,3.0,2013.0,53.314562,50.311145
"Россия, Самара, 5-я просека, 123",36.0,9/11,2750000,1,13.0,2016.0,53.242802,50.181131
"Россия, Самара, улица Агибалова, 48",86.0,5/16,7750000,3,16,2008,53.190413,50.119992
"Россия, Самара, проспект Кирова, 182",44.0,1/5,2280000,2,5,1969,53.239666,50.234222
"Россия, Самара, улица Стара Загора, 29",60.0,2/9,3800000,3,9.0,1975.0,53.225393,50.201353
"Россия, Самара, Самарская улица, 131",125.0,3/8,12900000,3,8,2002,53.192571,50.105484
"Россия, Самарская область, Волжский район, село Рождествено, Полевая улица, 71",53.0,14/25,5000000,1,26.0,2012.0,53.238345,50.063075
"Россия, Самарская область, Волжский район, село Рождествено, Ново-Садовая улица",49.0,2/4,2500000,2,4.0,1934.0,53.235095,50.054667
"Россия, Самара, улица Мечникова, 5",37.0,10/23,1790000,1,19.0,2016.0,53.186339,50.134868
"Россия, Самара, Заводское шоссе, 57В",36.0,6/12,1950000,1,9.0,1982.0,53.208014,50.280719
"Россия, Самара, Солнечная улица, 9А",99.0,17/17,4460000,3,19,2013,53.24146,50.18954
"Россия, Самара, улица Фадеева, 60",22.0,6/9,1770000,1,9,1976,53.237795,50.211584
"Россия, Самара, Ташкентская улица, 97, подъезд 1",53.9,5/5,2650000,3,5.0,1972.0,53.246401,50.251658
"Россия, Самара, улица Стара Загора, 25",50.0,10/11,3300000,1,10.0,2005.0,53.224191,50.198631
"Россия, Самара, Никитинская улица, 55",47.5,12/12,4100000,1,2.0,1917.0,53.19072,50.118887
"Россия, Самара, улица Гагарина, 69, подъезд 1",60.0,2/5,3550000,3,5,1961,53.200183,50.186674
"Россия, Самара, посёлок Сухая Самарка, Белорусская улица, 36",46.0,2/9,2050000,2,9.0,1993.0,53.146964,50.060326
"Россия, Самара, посёлок Соцгород, Долотный переулок, 16",42.0,4/9,1547000,1,9.0,1985.0,53.120205,50.08591
"Россия, Самара, Ново-Вокзальный тупик, 10",45.5,12/18,2750000,1,19,2008,53.218982,50.246933
"Россия, Самара, посёлок Сухая Самарка, Белорусская улица, 20",54.3,12/12,2600000,1,12.0,2008.0,53.146467,50.062347
"Россия, Самара, Центральная улица, 1Б",29.0,3/18,2200000,1,17,2013,53.21984,50.191202
"Россия, Самара, Молодогвардейская улица, 111",70.0,2/2,4300000,4,2.0,1917.0,53.191751,50.100517
"Россия, Самара, проспект Кирова, 283",33.7,3/9,2200000,1,9.0,1972.0,53.243093,50.233952
"Россия, Самара, Краснодонская улица, 10",44.0,4/27,1888130,1,,,53.215769,50.261701
"Россия, Самара, Киевская улица, 15Б, подъезд 2",42.1,9/10,4100000,1,10.0,2002.0,53.197561,50.155008
"Россия, Самара, Полевая улица, 71",80.0,18/25,6850000,2,26.0,2012.0,53.20179,50.127448
"Россия, Самарская область, Волжский район, посёлок городского типа Петра Дубрава, Физкультурная улица",43.7,4/5,2290000,2,5.0,1960.0,53.29644,50.363364
"Россия, Самара, посёлок Соцгород, Ново-Молодёжный переулок, 30",72.8,3/5,2400000,3,5,1989,53.120653,50.095791
"Россия, Самара, Казачья улица, 26",79.7,4/10,3400000,3,10,2010,53.156571,50.07893
"Россия, Самарская область, Волжский район, жилой район Южный Город - 1, Николаевский проспект, 23",58.5,1/9,2500000,2,10,2016,53.113292,50.148981
"Россия, Самарская область, Волжский район, село Черноречье, улица Победы",42.0,6/9,2650000,2,9.0,1983.0,53.160766,50.374575
"Россия, Самара, Самарская улица, 267",103.0,3/8,7100000,2,,1917.0,53.204093,50.122301
"Россия, Самара, улица Авроры, 94",33.0,8/9,1930000,1,9.0,1970.0,53.192582,50.190348
"Россия, Самара, проспект Карла Маркса, 475",65.0,7/9,3100000,3,9.0,1987.0,53.247026,50.262842
"Россия, Самара, Ново-Вокзальная улица, 193",50.0,4/12,3150000,2,12.0,1980.0,53.237607,50.219633
"Россия, Самара, Московское шоссе, 99, подъезд 1",21.4,7/9,1590000,1,9.0,1987.0,53.235747,50.205269
"Россия, Самара, Краснодонская улица, 65",49.0,5/5,2500000,2,5.0,1980.0,53.228536,50.248433
"Россия, Самара, посёлок Сухая Самарка, Белорусская улица, 20",55.8,2/12,2990000,2,12,2008,53.146467,50.062347
"Россия, Самара, 5-я просека, 125",36.0,11/16,2450000,1,16,2017,53.243341,50.180053
"Россия, Самара, Ново-Вокзальный тупик, 12",47.0,7/10,2900000,1,10,2004,53.218551,50.245819
"Россия, Самара, Зубчаниновское шоссе, 120",31.3,3/3,1250000,1,5.0,1983.0,53.228881,50.29546
"Россия, Самара, Тихвинская улица, 24, подъезд 4",99.3,7/10,5700000,3,10.0,1995.0,53.230277,50.189288
"Россия, Самара, посёлок Мехзавод, 1-й квартал, 53",36.0,4/10,2099000,1,,,53.307331,50.286109
"Россия, Самара, Советский район, квартал 5-й посёлок Киркомбината, 11",47.0,5/5,1850000,2,2.0,1.0,53.176712,50.204056
"Россия, Самара, посёлок Мехзавод, 1-й квартал, 51",38.0,4/16,1900000,1,9.0,1965.0,53.307331,50.286809
"Россия, Самара, улица Дыбенко, 118А",75.0,10/10,6600000,3,10,1994,53.208467,50.218403
"Россия, Самара, Краснодонская улица, 67",16.0,1/10,1150000,1,10.0,1993.0,53.22943,50.246699
"Россия, Самарская область, Волжский район, село Выползово, Советская улица, 9",37.0,4/10,2600000,1,9,1987,53.287182,50.121313
"Россия, Самара, Молодёжная улица, 8А",71.0,10/16,4950000,2,17.0,1994.0,53.259035,50.219831
"Россия, Самара, улица Георгия Димитрова, 5",65.0,2/5,3300000,3,5.0,1971.0,53.250954,50.239639
"Россия, Самара, улица Стара Загора, 195",46.0,4/5,2500000,2,5.0,1968.0,53.244381,50.236027
"Россия, Самара, Нагорная улица, 138А",65.0,10/10,3250000,3,10.0,1988.0,53.235564,50.252916
"Россия, Самара, Красноглинский район, посёлок Управленческий, Красногвардейская улица, 6",67.0,3/9,3150000,3,9,1985,53.349843,50.211
"Россия, Самара, улица 22 Партсъезда, 169",30.7,5/5,2500000,1,None,1,53.22805,50.211692
"Россия, Самара, Партизанская улица, 158",47.0,6/10,2850000,1,10.0,2013.0,53.187623,50.189351
"Россия, Самара, улица Советской Армии, 203",62.0,8/16,3499000,2,17.0,2012.0,53.229765,50.193771
"Россия, Самара, Крейсерная улица, 3",64.0,13/16,3200000,2,16,2006,53.182519,50.207299
"Россия, Самара, 5-я просека, 95А",50.0,14/17,3800000,1,19,2009,53.24333,50.182335
"Россия, Самара, Гвардейская улица, 15",32.0,3/9,2100000,1,9.0,1972.0,53.234492,50.28009
"Россия, Самара, Демократическая улица, 8",54.0,7/10,3300000,2,10.0,1992.0,53.262919,50.212887
"Россия, Самара, 7-я просека, 102",36.0,6/19,2390000,1,19.0,2014.0,53.256234,50.198469
"Россия, Самара, улица Победы, 4Б, подъезд 1",67.0,9/11,4950000,2,10.0,2006.0,53.20378,50.22523
"Россия, Самара, Ташкентская улица, 140",46.0,5/5,2850000,2,5.0,1971.0,53.255286,50.242927
"Россия, Самара, Майская улица, 1",72.7,7/16,3416430,2,16,2016,53.234546,50.256707
"Россия, Самара, улица Стара Загора, 116",45.4,2/9,2750000,2,9.0,1979.0,53.24423,50.22399
"Россия, Самара, посёлок Сухая Самарка, Белорусская улица, 20",78.8,12/12,4100000,3,12.0,2008.0,53.146467,50.062347
"Россия, Самара, Корабельная улица, 3",44.9,2/2,1400000,2,2.0,1951.0,53.201984,50.179272
"Россия, Самара, Ново-Вокзальный тупик, 10",42.0,12/18,2650000,1,19,2008,53.218982,50.246933
"Россия, Самара, Ново-Вокзальный тупик, 13, подъезд 2",84.0,3/10,5590000,3,10,2007,53.218395,50.244229
"Россия, Самара, Межевая улица, 1",62.8,16/16,3790000,2,,1.0,53.224153,50.150202
"Россия, Самарская область, Волжский район, село Рождествено, Садовая улица",96.0,5/23,10000000,3,26.0,2013.0,53.239881,50.060515
"Россия, Самарская область, Волжский район, село Рождествено, Ново-Садовая улица",110.7,3/10,5100000,3,5,1997,53.235095,50.054667
"Россия, Самарская область, Волжский район, село Рождествено, Ново-Садовая улица",31.0,24/25,2450000,0,,,53.235095,50.054667
"Россия, Самара, улица Свободы, 83",31.3,2/5,1850000,1,5.0,1963.0,53.214885,50.244184
"Россия, Самара, проспект Карла Маркса, 32",48.5,7/14,3250000,1,16,2009,53.19864,50.150975
"Россия, Самара, улица Гастелло, 22А",31.4,8/24,2360000,1,24.0,2014.0,53.226929,50.191462
"Россия, Самара, Советская улица, 64",62.0,1/2,2050000,3,2,1953,53.23143,50.264118
"Россия, Самара, Арцыбушевская улица, 33",85.0,11/16,6700000,3,2.0,1889.0,53.191832,50.114935
"Россия, Самара, Печерская улица, 25",49.2,13/22,3700000,1,2.0,1952.0,53.20343,50.182039
"Россия, Самара, Ставропольская улица, 173",61.4,4/9,3300000,3,9.0,1988.0,53.233538,50.260758
"Россия, Самара, Вилоновская улица, 59",34.7,2/2,550000,1,2.0,1917.0,53.194923,50.113506
"Россия, Самара, проспект Карла Маркса, 298",31.0,5/5,1650000,1,5,1986,53.230864,50.223011
"Россия, Самара, улица Гастелло, 12",18.0,3/5,1100000,1,5.0,1971.0,53.22942,50.187563
"Россия, Самара, улица Аминева, 5Б",114.0,2/10,12150000,3,10.0,2010.0,53.247528,50.211486
"Россия, Самара, улица Водников, 28/30",237.0,16/17,16500000,5,16,2004,53.181342,50.076451
"Россия, Самара, проспект Карла Маркса",43.0,1/9,2390000,2,9,1976,53.224503,50.213156
"Россия, Самара, поселок Прибрежный, Прибрежная улица, 8",42.0,1/3,1020000,2,3.0,1960.0,53.483056,49.854243
"Россия, Самара, проспект Кирова, 417",69.8,1/12,3550000,3,12.0,1983.0,53.259224,50.218834
"Россия, Самара, Ленинская улица, 61",145.0,3/9,10500000,3,9.0,2001.0,53.184521,50.105682
"Россия, Самарская область, Волжский район, посёлок городского типа Смышляевка, Демократическая улица",84.5,1/3,4000000,3,3.0,2014.0,53.250459,50.388292
"Россия, Самара, Средне-Садовая улица, 10, подъезд 6",62.8,2/5,2890000,2,5,1958,53.207809,50.239621
"Россия, Самара, Молодёжная улица, 8",87.0,3/18,4900000,4,17,1994,53.259504,50.220451
"Россия, Самара, посёлок Соцгород, Пугачевский тракт, 31",56.4,9/9,1650000,3,9,1972,53.124598,50.090851
"Россия, Самара, проспект Ленина, 2А",51.0,4/10,4890000,2,,1.0,53.204735,50.127538
"Россия, Самара, улица Земеца, 26А",24.6,1/5,1100000,1,5.0,1973.0,53.213871,50.296628
"Россия, Самара, Вольская улица, 107",43.0,1/2,1400000,1,,,53.222794,50.251658
"Россия, Самара, 6-я просека, 135",40.0,4/16,2500000,1,16.0,2003.0,53.247344,50.19007
"Россия, Самара, Владимирская улица, 30",30.0,4/9,2100000,1,9.0,1978.0,53.197615,50.135659
"Россия, Самара, улица Алексея Толстого, 75",65.0,5/7,5700000,2,,,53.188006,50.084536
"Россия, Самара, 6-я просека, 165",45.0,16/16,3300000,1,5,1960,53.24319,50.189701
"Россия, Самара, Запорожская улица, 29, подъезд 1",31.0,2/9,2300000,1,9,1991,53.207507,50.22249
"Россия, Самара, Красноглинский район, микрорайон Крутые Ключи, улица Виталия Жалнина, 16",34.4,3/3,1250000,1,3.0,2013.0,53.314395,50.310785
"Россия, Самара, Красноглинский район, посёлок Управленческий, Крайняя улица, 19",53.0,3/9,2850000,2,9.0,1980.0,53.340043,50.225697
"Россия, Самара, Бобруйская улица, 89Б",42.9,3/9,2600000,1,9.0,1999.0,53.188622,50.215231
"Россия, Самара, Воронежская улица, 186",45.9,1/5,2100000,2,5.0,1967.0,53.239078,50.223047
"Россия, Самара, улица Фадеева, 65",49.0,2/9,3250000,2,9.0,1970.0,53.236518,50.215124
"Россия, Самара, посёлок Соцгород, Пугачевский тракт, 41",44.5,1/5,1790000,2,5,1975,53.123382,50.092162
"Россия, Самара, посёлок Мехзавод, 7",44.4,4/5,2150000,2,,,53.312964,50.298487
"Россия, Самара, проспект Кирова, 417",32.0,9/12,2300000,1,12,1983,53.259224,50.218834
"Россия, Самара, улица Гастелло, 46",95.0,9/14,7200000,3,17.0,2013.0,53.222724,50.195235
"Россия, Самара, улица Михаила Сорокина, 9",44.0,1/5,2399000,2,5.0,1961.0,53.201974,50.204766
"Россия, Самара, проспект Юных Пионеров, 61, подъезд 1",12.0,1/5,1150000,1,5.0,1969.0,53.217494,50.231257
"Россия, Самара, Печерская улица, 29",61.3,1/22,3650000,2,24.0,2014.0,53.203419,50.183961
"Россия, Самара, Юбилейная улица, 29",22.0,3/5,1780000,1,5.0,1980.0,53.224627,50.266651
"Россия, Самара, Революционная улица, 79",37.8,2/6,2900000,1,6,1976,53.212744,50.168627
"Россия, Самара, Роторный переулок, 17, подъезд 1",33.0,1/2,1200000,1,2,1959,53.227824,50.236135
"Россия, Самара, Физкультурная улица, 123",30.3,4/5,1580000,1,5.0,1964.0,53.219333,50.26975
"Россия, Самара, Ново-Вокзальная улица, 223",42.4,5/5,2300000,2,5,1967,53.243352,50.213363
"Россия, Самара, улица Стара Загора, 181",68.0,1/9,3140000,3,9.0,1974.0,53.245114,50.235282
"Россия, Самара, Пионерская улица, 100",105.0,3/15,7509900,3,,1.0,53.181466,50.093995
"Россия, Самара, Красноглинский район, микрорайон Крутые Ключи, улица Евгения Золотухина, 38, подъезд 2",34.7,1/3,1700000,1,3.0,2012.0,53.318715,50.312842
"Россия, Самара, улица Силина, 14",33.0,1/9,2250000,1,9.0,1981.0,53.263387,50.232102
"Россия, Самара, улица Тухачевского, 40А",51.3,7/25,2400000,1,12,1985,53.189706,50.148199
"Россия, Самара, посёлок Соцгород, Калининградская улица, 50",66.0,2/9,2500000,3,9,1974,53.109401,50.077978
"Россия, Самарская область, Волжский район, МСПП Рубежный, улица Матросова",45.3,2/5,2500000,2,5.0,1960.0,53.134356,50.25023
"Россия, Самара, Ставропольская улица, 98к1",18.9,3/5,1350000,1,5,1972,53.222406,50.231994
"Россия, Самара, посёлок Мехзавод, 11-й квартал, 19",32.0,4/4,1420000,1,,,53.297672,50.289908
"Россия, Самара, посёлок Соцгород, Ново-Молодёжный переулок, 25",34.0,1/5,1400000,1,5.0,1976.0,53.120767,50.091372
"Россия, Самара, поселок 113-й километр, Липяговская улица, 8",40.3,3/9,1350000,1,9.0,1991.0,53.103681,50.031257
"Россия, Самара, Солнечная улица, 36Б",64.9,12/16,5900000,2,17,2016,53.255727,50.202332
"Россия, Самарская область, Волжский район, село Рождествено, Ново-Садовая улица",92.1,2/5,3600000,4,5.0,1962.0,53.235095,50.054667
"Россия, Самара, улица Советской Армии, 238В",60.0,8/16,4000000,1,None,1,53.237036,50.180377
"Россия, Самара, Красноглинский район, микрорайон Крутые Ключи, бульвар Ивана Финютина, 11",31.0,3/3,1350000,1,3.0,2011.0,53.318188,50.306734
"Россия, Самара, улица Фадеева, 59",46.0,6/9,3200000,2,None,1,53.23495,50.212177
"Россия, Самара, улица Академика Платонова, 8",60.0,4/10,3750000,1,10.0,1.0,53.224115,50.174214
"Россия, Самара, Красноглинский район, микрорайон Крутые Ключи, бульвар Ивана Финютина, 23, подъезд 2",43.6,1/3,2090000,2,3.0,2011.0,53.319113,50.309177
"Россия, Самара, посёлок Соцгород, Долотный переулок, 8, подъезд 2",56.4,9/10,2200000,2,10.0,1997.0,53.12061,50.084149
"Россия, Самара, улица Осипенко, 142",67.0,5/12,4600000,3,12.0,1979.0,53.199093,50.147373
"Россия, Самара, Солнечная улица, 23",52.3,5/9,3100000,2,9,1991,53.245722,50.194624
"Россия, Самара, Заводское шоссе, 59",21.0,9/9,1350000,1,9.0,1983.0,53.208268,50.282506
"Россия, Самара, Краснодонская улица, 10",45.0,2/27,2565000,1,,,53.215769,50.261701
"Россия, Самара, улица Гагарина, 14",55.0,5/5,2630000,3,5,1961,53.200452,50.166444
