adress,area,floor,?,price,rooms,floors_total,year,latitude,longitude
"Россия, Ленинградская область, Всеволожский район, Мурино, Новая улица, 7к3",33.0,3/27,181,4295000,1,27,2015,60.041355,30.449519
"Россия, Санкт-Петербург, Глухая Зеленина улица, 6",85.0,2/11,5143,19000000,2,11,2015,59.964147,30.282936
"Россия, Санкт-Петербург, 10-я Советская улица, 8А",46.1,6/8,959,9012660,1,5,1903,59.937161,30.380538
"Россия, Санкт-Петербург, Союзный проспект, 4",33.0,13/15,105,4650000,1,15,2014,59.916284,30.439548
"Россия, Санкт-Петербург, 9-я Советская улица, 39/24",132.0,5/7,1467,11500000,4,6,1911,59.935813,30.379145
"Россия, Санкт-Петербург, Авангардная улица, 7",14.0,1/5,9458,1650000,0,5,1969,59.8399,30.178758
"Россия, Санкт-Петербург, Мгинская улица, 3",44.0,3/4,1903,4550000,2,4,1952,59.901188,30.366174
"Россия, Санкт-Петербург, улица Коммуны, 26к1",61.0,9/12,5248,6180000,3,,,59.947631,30.502763
"Россия, Санкт-Петербург, проспект Космонавтов, 65к2",66.0,3/18,1219,11200000,2,25,2011,59.836685,30.358017
"Россия, Санкт-Петербург, Ушаковская набережная, 3к2",45.4,4/17,3969,7050000,1,17,2015,59.982235,30.316254
"Россия, Санкт-Петербург, Свердловская набережная, 58",93.5,8/16,3418,10987000,3,16,2014,59.956183,30.40676
"Россия, Санкт-Петербург, Невский проспект, 131",99.0,5/7,3776,12990000,3,5,1903,59.926264,30.374564
"Россия, Санкт-Петербург, улица Кораблестроителей, 30",133.3,3/18,3176,16000000,4,18,2004,59.951912,30.216667
"Россия, Ленинградская область, Всеволожский район, Мурино, Охтинская аллея, 10",32.8,8/19,2135,3700000,1,20,2016,60.047933,30.431517
"Россия, Санкт-Петербург, проспект Маршака, 26",71.5,9/19,2671,6000000,3,19,2017,60.026527,30.454532
"Россия, Санкт-Петербург, Цимлянская улица, 6",84.7,4/6,7862,13000000,3,6,1914,59.9486,30.411629
"Россия, Санкт-Петербург, проспект Ветеранов, 93",36.0,12/12,1693,4000000,1,,,59.834013,30.209391
"Россия, Санкт-Петербург, проспект Обуховской Обороны, 195",26.7,5/24,4389,4200000,0,24,2015,59.869363,30.459131
"Россия, Санкт-Петербург, улица Марата, 57",100.0,5/5,1798,12600000,3,6,1882,59.922273,30.347426
"Россия, Санкт-Петербург, Захарьевская улица, 21",118.2,2/6,4593,12560000,4,4,1898,59.947545,30.356867
"Россия, Санкт-Петербург, Дибуновская улица, 50",107.6,8/15,5472,16000000,3,25,2005,59.98485,30.260029
"Россия, Санкт-Петербург, проспект Просвещения, 75",67.7,7/13,351,6790000,3,,,60.038555,30.401531
"Россия, Санкт-Петербург, Пушкинский район, посёлок Шушары, территория Ленсоветовский, 29",41.0,2/10,6977,3100000,1,10,2009,59.758014,30.466992
"Россия, Санкт-Петербург, Муринская дорога, 78",80.0,11/18,3285,6200000,3,18,2015,60.035405,30.451981
"Россия, Санкт-Петербург, Бухарестская улица, 69",67.0,9/15,588,8600000,3,15,1983,59.849754,30.397974
"Россия, Ленинградская область, Всеволожский район, Мурино, улица Шоссе в Лаврики, 89",43.0,12/18,4903,3777000,1,19,2017,60.06654,30.45685
"Россия, Санкт-Петербург, Дерптский переулок, 8",43.0,2/4,3609,5900000,1,5,1913,59.913122,30.288317
"Россия, Санкт-Петербург, набережная Обводного канала, 96",72.5,6/6,2219,6650000,4,6,1900,59.908218,30.320216
"Россия, Санкт-Петербург, проспект Обуховской Обороны, 97",90.9,2/5,6987,6350000,3,5,1917,59.897095,30.432505
"Россия, Санкт-Петербург, Рыбацкий проспект, 57к1",75.2,2/10,1124,7199000,3,10,1999,59.834655,30.519085
"Россия, Санкт-Петербург, улица Харченко, 12",59.0,4/5,3852,6000000,2,5,1958,59.984922,30.349052
"Россия, Санкт-Петербург, проспект Юрия Гагарина, 48к1",90.0,1/10,5719,9990000,3,10,2004,59.839805,30.340859
"Россия, Санкт-Петербург, проспект Художников, 15А",53.0,6/15,3729,5450000,3,15,1978,60.039535,30.347183
"Россия, Ленинградская область, Всеволожский район, Мурино, улица Шувалова, 11",34.2,12/22,2023,3600000,1,23,2016,60.056786,30.427547
"Россия, Санкт-Петербург, Пушкинский район, посёлок Шушары, территория Ленсоветовский, 6",44.3,4/5,823,3550000,2,5,1963,59.759691,30.472283
"Россия, Санкт-Петербург, Суворовский проспект, 30",231.0,6/7,3037,24000000,9,,,59.93758,30.373621
"Россия, Санкт-Петербург, посёлок Парголово, улица Николая Рубцова, 5",23.2,20/27,5864,2640000,0,28,2018,60.075986,30.343797
"Россия, Санкт-Петербург, Заставская улица, 44, подъезд 1",27.4,5/12,6277,5600000,0,12,2016,59.888325,30.317323
"Россия, Санкт-Петербург, проспект Ветеранов, 171к5",24.0,9/12,743,3050000,0,13,2017,59.841975,30.113127
"Россия, Санкт-Петербург, улица Глинки, 6",73.8,1/3,259,10700000,2,4,1839,59.924424,30.298854
"Россия, Ленинградская область, Ломоносовский район, Аннинское городское поселение, деревня Куттузи, Уланская улица, 3",76.0,12/12,6132,5000000,3,13,2016,59.746823,30.063783
"Россия, Санкт-Петербург, Пушкинский район, посёлок Шушары, жилой комплекс Шушары 463",35.7,12/12,5994,2950000,1,12,2014,59.810776,30.359472
"Россия, Санкт-Петербург, Комендантский проспект, 53к4",69.3,24/25,3518,7800000,2,24,2010,60.032425,30.238712
"Россия, Санкт-Петербург, улица Адмирала Черокова, 18к3",34.1,5/20,4795,4700000,1,19,2014,59.851851,30.142179
"Россия, Санкт-Петербург, улица Красуцкого, 3М",92.0,9/16,5316,17500000,3,19,2015,59.903065,30.315042
"Россия, Санкт-Петербург, проспект Маршака, 28к1",33.0,11/19,8746,3750000,1,19,2017,60.025853,30.454397
"Россия, Санкт-Петербург, Пушкинский район, посёлок Шушары, Вишерская улица, 16",53.0,18/20,4102,5850000,2,20,2012,59.806097,30.374375
"Россия, Санкт-Петербург, Будапештская улица, 17к3",52.8,10/10,2339,7000000,2,12,2008,59.865424,30.370764
"Россия, Санкт-Петербург, 26-я линия В.О., 7",36.0,2/10,2797,6299000,1,,,59.928879,30.26037
"Россия, Санкт-Петербург, Лабораторный проспект, 16",42.5,2/12,4527,4500000,1,12,1998,59.981577,30.384113
"Россия, Санкт-Петербург, Туристская улица",85.0,7/16,5026,13500000,3,16,2011,59.99701,30.208088
"Россия, Санкт-Петербург, Шуваловский проспект, 61к2, подъезд 3",40.0,4/14,646,4900000,1,17,1998,60.024828,30.222237
"Россия, Санкт-Петербург, Смольный проспект, 17",166.0,6/7,2443,37700000,4,10,2017,59.944292,30.39651
"Россия, Санкт-Петербург, Заставская улица, 44, подъезд 1",27.4,5/12,6277,5600000,0,12,2016,59.888325,30.317323
"Россия, Санкт-Петербург, Выборгское шоссе, 5к1В, подъезд 5",153.0,10/10,961,16000000,4,10,1999,60.040627,30.318904
"Россия, Санкт-Петербург, Екатерининский проспект, 2",42.0,10/19,1586,4800000,1,25,2017,59.977976,30.436638
"Россия, Санкт-Петербург, Народная улица, 86",30.4,5/5,489,2900000,1,5,1962,59.88567,30.483251
"Россия, Санкт-Петербург, Ново-Александровская улица, 14",67.0,16/18,1371,8100000,2,19,2013,59.865488,30.464656
"Россия, Санкт-Петербург, Пионерская улица, 50",86.0,7/10,4,16950000,3,14,2012,59.963539,30.273171
"Россия, Санкт-Петербург, проспект Королёва, 73",66.1,5/20,4264,5990000,2,20,2017,60.036429,30.237373
"Россия, Санкт-Петербург, Казначейская улица, 1/61",69.8,4/5,10233,7700000,3,,,59.927414,30.314368
"Россия, Санкт-Петербург, Кемская улица, 14",227.0,2/7,182,59900000,5,7,2006,59.973401,30.263047
"Россия, Санкт-Петербург, проспект Косыгина, 30к3",58.0,4/9,4700,5950000,3,,,59.947297,30.497067
"Россия, Санкт-Петербург, Среднерогатская улица, 11",112.1,23/24,5145,11800000,4,26,2017,59.822711,30.33308
"Россия, Санкт-Петербург, улица Коллонтай, 5/1",37.0,18/25,2548,5100000,1,25,2013,59.913144,30.449996
"Россия, Ленинградская область, Всеволожский район, Заневское городское поселение, Кудрово, жилой комплекс Новый Оккервиль",59.4,1/9,5255,5350000,3,,,59.914899,30.508952
"Россия, Санкт-Петербург, Песочная набережная, 18",168.0,3/8,1471,45500000,3,11,2006,59.972775,30.291326
"Россия, Санкт-Петербург, Комендантский проспект, 16к1",85.2,4/9,9460,11500000,3,16,2003,60.009741,30.255888
"Россия, Санкт-Петербург, Московский проспект, 42/27",161.7,4/5,353,16500000,4,2,1899,59.914155,30.318608
"Россия, Санкт-Петербург, Итальянская улица, 11",91.5,2/5,3971,24500000,4,5,1846,59.936363,30.332514
"Россия, Санкт-Петербург, проспект Энгельса, 96",43.5,5/9,2136,5300000,2,9,1962,60.025215,30.317458
"Россия, Санкт-Петербург, Богатырский проспект, 63",62.6,8/18,106,8540000,2,18,2010,60.008698,30.202132
"Россия, Санкт-Петербург, улица Оптиков",93.2,9/12,1220,12600000,3,,,59.999287,30.2253
"Россия, Санкт-Петербург, Морской проспект, 29",109.9,6/7,3419,44920800,3,7,2017,59.971834,30.263559
"Россия, Санкт-Петербург, проспект Королёва, 65",53.0,23/25,1904,7900000,2,25,2011,60.03354,30.242036
"Россия, Ленинградская область, Всеволожский район, Заневское городское поселение, Кудрово, жилой комплекс Новый Оккервиль",70.2,22/22,7863,8700000,1,24,2007,59.914899,30.508952
"Россия, Санкт-Петербург, Корпусная улица, 9",75.0,4/10,647,18000000,1,12,2013,59.962751,30.287697
"Россия, Санкт-Петербург, территория Сосновая Поляна",35.5,5/15,3731,3300000,1,,,59.835247,30.154567
"Россия, Санкт-Петербург, Дворцовая площадь",31.6,8/21,2024,3600000,0,21,2016,59.939095,30.315868
"Россия, Санкт-Петербург, посёлок Парголово, улица Валерия Гаврилина, 15",35.0,18/24,5622,3750000,1,27,2017,60.080394,30.334832
"Россия, Санкт-Петербург, набережная реки Оккервиль, 8",74.2,4/10,3181,7300000,3,10,1993,59.924307,30.459796
"Россия, Ленинградская область, Всеволожский район, Мурино, улица Шоссе в Лаврики, 89",39.5,18/18,1125,3750000,1,19,2017,60.06654,30.45685
"Россия, Санкт-Петербург, Народная улица, 20",73.0,23/25,4904,10700000,2,26,2013,59.881932,30.464602
"Россия, Санкт-Петербург, аллея Поликарпова, 5",59.6,7/9,6979,6000000,3,9,1976,60.008878,30.289485
"Россия, Санкт-Петербург, улица Оптиков",36.7,6/25,2220,3850000,0,25,2009,59.999287,30.2253
"Россия, Санкт-Петербург, проспект Наставников, 14",50.0,7/12,3853,4895000,2,,,59.941213,30.488623
"Россия, Санкт-Петербург, улица Ольминского, 5",44.2,7/17,589,6300000,1,17,2005,59.900168,30.424807
"Россия, Санкт-Петербург, улица Добровольцев, 62",30.3,6/9,3613,3500000,1,,,59.825873,30.16779
"Россия, Санкт-Петербург, Комендантский проспект, 69",26.4,5/21,3286,3200000,0,27,2017,60.039413,30.224294
"Россия, Санкт-Петербург, Большой Сампсониевский проспект, 108",53.3,6/7,3519,6500000,2,9,1956,59.995557,30.330268
"Россия, Санкт-Петербург, улица Есенина, 8к1",65.0,4/9,1799,7600000,3,9,1978,60.038456,30.327995
"Россия, Санкт-Петербург, проспект Пархоменко, 34",42.0,3/18,6281,6900000,1,19,2011,59.997986,30.352915
"Россия, Ленинградская область, Всеволожский район, Мурино, улица Шоссе в Лаврики, 85",74.6,12/18,5475,5500000,3,18,2015,60.064358,30.457973
"Россия, Санкт-Петербург, улица Маршала Новикова, 2к1",52.2,1/12,3777,5600000,2,12,1987,60.009206,30.26585
"Россия, Санкт-Петербург, улица Маршала Тухачевского, 23",48.4,2/16,2933,4970000,1,16,2017,59.968263,30.428346
"Россия, Санкт-Петербург, Гороховая улица, 34",188.0,2/4,4391,23000000,7,4,1865,59.929082,30.32151
"Россия, Санкт-Петербург, Октябрьская набережная, 64к1",44.0,5/9,2673,5000000,2,9,1973,59.880794,30.454182
"Россия, Ленинградская область, Всеволожский район, Мурино, Оборонная улица, 2к3",31.5,4/17,825,2950000,1,17,2007,60.047205,30.463138
"Россия, Санкт-Петербург, посёлок Парголово, улица Валерия Гаврилина, 13к1",20.6,12/23,5720,3000000,0,28,2017,60.079639,30.33608
"Россия, Санкт-Петербург, Большеохтинский проспект, 9",112.0,18/21,10234,27000000,3,21,2010,59.948172,30.410883
"Россия, Санкт-Петербург, улица Ленсовета, 43к3, подъезд 1",45.3,6/16,745,7550000,1,19,2008,59.842766,30.328903
"Россия, Санкт-Петербург, Загородный проспект, 12",105.0,4/5,4598,10200000,3,5,1880,59.926684,30.344524
"Россия, Санкт-Петербург, Гражданский проспект, 36",46.1,10/13,6138,3890000,2,24,2004,60.010938,30.394138
"Россия, Санкт-Петербург, Ленинский проспект, 82к2",43.0,16/23,5996,5700000,1,22,2014,59.859185,30.196033
"Россия, Санкт-Петербург, Петергоф, Парковая улица, 18",66.4,1/5,5865,4990000,3,5,2013,59.858616,29.93571
"Россия, Санкт-Петербург, Дачный проспект, 23к5",53.7,2/3,261,6395000,2,3,1949,59.838123,30.256103
"Россия, Санкт-Петербург, проспект Пархоменко, 34",42.0,3/18,6281,6900000,1,19,2011,59.997986,30.352915
"Россия, Ленинградская область, Всеволожский район, Мурино, Петровский бульвар, 7, подъезд 3",22.0,9/15,4797,2250000,0,15,2016,60.055385,30.432101
"Россия, Санкт-Петербург, Прилукская улица, 20",113.0,9/9,2340,23000000,4,10,2018,59.909847,30.349214
"Россия, Санкт-Петербург, Богатырский проспект, 63",57.0,5/18,3040,6500000,2,18,2010,60.008698,30.202132
"Россия, Санкт-Петербург, проспект Обуховской Обороны, 138к2",25.0,22/35,4529,3550000,0,36,2012,59.845785,30.484715
"Россия, Санкт-Петербург, Пискарёвский проспект, 10",32.0,7/9,491,4100000,0,,,59.964863,30.408413
"Россия, Санкт-Петербург, Ленинский проспект, 57к1",41.8,12/17,6990,4300000,1,17,2010,59.861756,30.175569
"Россия, Санкт-Петербург, проспект Обуховской Обороны, 90",61.4,4/5,4104,5200000,2,5,1877,59.892942,30.43927
"Россия, Санкт-Петербург, улица Невзоровой, 12",30.9,2/20,4266,3890000,1,5,1969,59.889918,30.416938
"Россия, Ленинградская область, Всеволожский район, Мурино, Графская улица, 8",52.3,11/17,1694,5200000,2,18,2017,60.063563,30.431293
"Россия, Санкт-Петербург, Измайловский проспект, 16/30",230.0,2/6,1587,24000000,7,7,1911,59.911448,30.308232
"Россия, Санкт-Петербург, Витебский проспект",120.0,15/16,2798,14000000,3,17,2010,59.851783,30.365626
"Россия, Санкт-Петербург, Пионерская улица, 50",78.1,6/11,1374,13056000,2,14,2012,59.963539,30.273171
"Россия, Ленинградская область, Всеволожский район, Мурино, Воронцовский бульвар, 12",25.7,16/22,5320,2820000,0,23,2016,60.057967,30.422471
"Россия, Санкт-Петербург, Комендантский проспект, 53к1",66.0,2/24,183,7850000,2,25,2008,60.030272,30.234723
"Россия, Санкт-Петербург, улица Чекистов, 22",65.0,12/12,109,6900000,3,12,2000,59.843042,30.170296
"Россия, Санкт-Петербург, Басков переулок, 2",115.5,7/9,3422,32401215,3,10,2018,59.939767,30.353184
"Россия, Санкт-Петербург, Невский проспект, 146",83.0,5/5,9462,11500000,2,5,1934,59.929078,30.370854
"Россия, Санкт-Петербург, Суздальский проспект, 9",11.0,1/9,8747,1450000,0,9,1985,60.066163,30.310523
"Россия, Санкт-Петербург, Дивенская улица, 11",76.0,3/8,5256,19700000,2,8,2015,59.960692,30.324456
"Россия, Санкт-Петербург, Пионерская улица, 50",125.0,8/11,5147,19150000,3,14,2012,59.963539,30.273171
"Россия, Санкт-Петербург, Ланское шоссе, 14к1",94.0,14/25,4703,15050000,3,25,2004,59.993847,30.309436
"Россия, Санкт-Петербург, улица Корнея Чуковского, 3к5",41.0,15/24,2444,4260000,1,24,2017,60.027215,30.456329
"Россия, Санкт-Петербург, Малая Зеленина улица, 1/22",74.0,9/10,962,24500000,2,10,2016,59.962435,30.282657
"Россия, Санкт-Петербург, Среднерогатская улица, 11",102.2,3/26,6,15300000,3,26,2017,59.822711,30.33308
"Россия, Санкт-Петербург, 3-я линия Васильевского острова, 46",34.2,6/6,7865,4390000,2,6,1911,59.946153,30.281445
"Россия, Санкт-Петербург, проспект Ветеранов, 169к2",32.0,1/12,2137,3700000,1,13,2016,59.838249,30.114439
"Россия, Санкт-Петербург, Пушкин, Оранжерейная улица, 51А",31.4,2/4,3182,4000000,1,4,1961,59.724437,30.416533
"Россия, Санкт-Петербург, Московский проспект, 106",66.4,2/7,1475,7500000,2,7,1938,59.894513,30.32027
"Россия, Санкт-Петербург, проспект Художников, 15А",30.7,1/9,2025,3150000,1,9,1974,60.039535,30.347183
"Россия, Ленинградская область, Всеволожский район, Заневское городское поселение, Кудрово, жилой комплекс Новый Оккервиль",46.6,1/9,4905,5200000,2,,,59.914899,30.508952
"Россия, Ленинградская область, Всеволожский район, Мурино, Оборонная улица, 37к1",25.0,10/12,5627,2850000,0,13,2017,60.042838,30.463812
"Россия, Санкт-Петербург, территория Сосновая Поляна",44.0,3/9,6982,4650000,2,9,1971,59.835247,30.154567
"Россия, Санкт-Петербург, Афонская улица, 20",34.0,4/10,3616,4390000,1,10,1998,60.030034,30.301333
"Россия, Санкт-Петербург, Ждановская улица, 45",125.0,9/13,6139,26000000,2,15,2017,59.962719,30.267485
"Россия, Санкт-Петербург, улица Бурцева, 3",42.1,3/5,3780,3750000,3,5,1968,59.835311,30.201099
"Россия, Санкт-Петербург, улица Софьи Ковалевской, 14к2",60.0,3/14,3854,6600000,2,14,1973,60.015597,30.411898
"Россия, Санкт-Петербург, Среднерогатская улица, 11",96.3,23/24,3973,15100000,3,26,2017,59.822711,30.33308
"Россия, Санкт-Петербург, проспект Ветеранов, 82",32.2,12/12,2549,3630000,1,12,1972,59.831155,30.215113
"Россия, Санкт-Петербург, Рыбацкий проспект, 9",97.2,16/17,3734,10999999,3,16,1995,59.843688,30.489674
"Россия, Санкт-Петербург, посёлок Парголово, улица Михаила Дудина, 25к2",36.6,17/27,6282,4300000,0,26,2011,60.071708,30.329765
"Россия, Санкт-Петербург, проспект Энтузиастов, 18к2",89.1,1/9,4398,7700000,4,,1979,59.946955,30.46409
"Россия, Санкт-Петербург, Красное Село, улица Спирина, 2к1",30.7,3/9,1800,2550000,1,9,1978,59.747444,30.086061
"Россия, Санкт-Петербург, улица Новосёлов, 63",45.0,2/5,5478,4000000,2,5,1962,59.887679,30.487132
"Россия, Санкт-Петербург, Туристская улица",80.0,14/16,2221,11000000,2,16,2007,59.99701,30.208088
"Россия, Санкт-Петербург, Пушкин, Оранжерейная улица, 51А",34.0,4/9,3287,3650000,1,,,59.724437,30.416533
"Россия, Санкт-Петербург, Дунайский проспект, 3к2, подъезд 2",69.0,6/9,595,9200000,2,9,1997,59.829043,30.328984
"Россия, Санкт-Петербург, проспект Кузнецова, 14к1",36.0,22/25,10236,4650000,1,26,2012,59.861028,30.191595
"Россия, Санкт-Петербург, Среднерогатская улица, 20",23.0,8/17,1696,2850000,0,18,2019,59.820282,30.3382
"Россия, Санкт-Петербург, проспект Просвещения, 15, подъезд 1",84.9,5/28,1228,8820000,3,29,2017,60.05419,30.325848
"Россия, Санкт-Петербург, Басков переулок, 25",111.5,2/5,2342,15000000,3,5,1880,59.939379,30.358565
"Россия, Ленинградская область, Всеволожский район, Мурино, улица Шоссе в Лаврики, 55",28.0,3/17,4600,2820000,0,18,2016,60.059459,30.458035
"Россия, Санкт-Петербург, посёлок Парголово, Тихоокеанская улица, 17",40.0,11/25,4105,2390000,1,10,2012,60.071766,30.235002
"Россия, Санкт-Петербург, улица Шаврова, 13к1",40.0,4/16,4809,4900000,1,16,2007,60.024019,30.235792
"Россия, Санкт-Петербург, Комендантский проспект, 60к1",56.9,10/18,6999,7400000,2,28,2017,60.035351,30.225614
"Россия, Санкт-Петербург, Гжатская улица, 22к4",29.0,5/16,746,4400000,0,24,2012,60.01365,30.388281
"Россия, Санкт-Петербург, проспект Юрия Гагарина, 28к4",53.0,8/12,2801,5560000,3,,,59.854571,30.344776
"Россия, Санкт-Петербург, проспект Королёва, 59к4",51.5,11/24,2934,6400000,2,10,2016,60.029112,30.248791
"Россия, Санкт-Петербург, посёлок Парголово, Парашютная улица",39.0,19/19,3044,4690000,1,19,2014,60.063464,30.211843
"Россия, Санкт-Петербург, улица Политрука Пасечника, 10",83.0,4/4,5721,4750000,3,4,1954,59.779748,30.10701
"Россия, Санкт-Петербург, Ленинский проспект, 74к1",35.0,11/18,5030,4300000,1,18,2010,59.860861,30.184993
"Россия, Санкт-Петербург, Пушкин, Оранжерейная улица, 51А",62.6,1/5,828,6590000,3,5,1983,59.724437,30.416533
"Россия, Санкт-Петербург, улица Пестеля, 19",110.0,4/5,4531,17000000,4,5,1839,59.942584,30.345899
"Россия, Санкт-Петербург, Среднерогатская улица, 20",23.4,8/18,1588,3300000,0,18,2019,59.820282,30.3382
"Россия, Санкт-Петербург, Пушкин, Красносельское шоссе, 48/60",47.5,4/5,648,5000000,1,5,2003,59.704106,30.373827
"Россия, Санкт-Петербург, Петровская набережная, 4",100.0,3/8,969,35000000,3,8,1967,59.953759,30.330394
"Россия, Санкт-Петербург, посёлок Парголово, улица Михаила Дудина, 25к2",36.6,17/27,6282,4300000,0,26,2011,60.071708,30.329765
"Россия, Санкт-Петербург, Военная улица, 18к2",84.3,5/12,492,13750000,3,12,2016,59.918309,30.369866
"Россия, Санкт-Петербург, улица Маршала Захарова, 12к1",98.0,4/12,1906,8990000,3,14,2010,59.859352,30.159148
"Россия, Санкт-Петербург, улица Невзоровой, 12",42.5,4/5,1376,4990000,2,5,1969,59.889918,30.416938
"Россия, Санкт-Петербург, проспект Энгельса, 93",145.0,10/24,6000,17400000,4,25,2005,60.024913,30.32177
"Россия, Санкт-Петербург, Басков переулок, 2",153.0,5/9,3424,36585640,3,10,2018,59.939767,30.353184
"Россия, Санкт-Петербург, Звенигородская улица, 2/44",231.2,4/5,4708,25000000,5,,,59.92309,30.336017
"Россия, Санкт-Петербург, Варшавская улица, 19к5",55.0,8/8,5323,9988000,2,20,2009,59.873735,30.310505
"Россия, Санкт-Петербург, Колпино, бульвар Трудящихся, 21",64.0,1/9,8749,4850000,3,9,1971,59.73458,30.574286
"Россия, Санкт-Петербург, улица Зайцева, 22/13",56.7,3/5,2450,6410000,2,5,1959,59.877064,30.271339
"Россия, Санкт-Петербург, Лыжный переулок, 2",110.0,4/25,355,16990000,3,25,2012,59.99638,30.201333
"Россия, Санкт-Петербург, Пушкинский район, посёлок Шушары, Вилеровский переулок, 6",24.0,14/24,5258,2800000,0,25,2015,59.811609,30.364045
"Россия, Санкт-Петербург, Исполкомская улица, 17",166.0,9/9,3184,28500000,3,10,2018,59.9303,30.38352
"Россия, Санкт-Петербург, Фермское шоссе, 12И",85.0,5/14,5149,17300000,3,10,2015,60.013942,30.309885
"Россия, Санкт-Петербург, проспект Просвещения, 15",112.5,24/25,1476,11915000,3,29,2017,60.053952,30.327196
"Россия, Санкт-Петербург, Дрезденская улица, 4",46.5,1/5,9464,5650000,2,5,1956,60.013195,30.326028
"Россия, Санкт-Петербург, Богатырский проспект, 63",43.0,4/16,4907,5575000,1,17,2010,60.008698,30.202132
"Россия, Санкт-Петербург, Пушкинский район, посёлок Шушары, Московское шоссе, 9",69.9,12/15,5632,15375000,2,15,2017,59.8023,30.398675
"Россия, Санкт-Петербург, проспект Просвещения, 15",118.0,15/21,3521,10500000,3,29,2017,60.053952,30.327196
"Россия, Санкт-Петербург, проспект Ударников, 30к1",51.0,5/12,2139,4460000,2,,,59.952065,30.472301
"Россия, Санкт-Петербург, Варшавская улица, 63к1",110.0,14/18,2681,13990000,4,7,1992,59.849153,30.314116
"Россия, Санкт-Петербург, Таврическая улица, 15",128.0,4/5,8,31900000,3,5,1916,59.94371,30.378355
"Россия, Санкт-Петербург, улица Сикейроса, 11к1",120.0,12/17,111,18000000,3,17,2005,60.034465,30.329406
"Россия, Санкт-Петербург, проспект Александровской Фермы, 8",33.3,22/25,7867,5400000,1,26,2017,59.861706,30.452502
"Россия, Санкт-Петербург, Шуваловский проспект, 63Б",64.2,7/11,2026,10600000,2,11,2008,60.023947,30.222821
"Россия, Санкт-Петербург, Русановская улица, 11",64.0,14/24,184,6700000,2,23,2013,59.863513,30.505943
"Россия, Санкт-Петербург, улица Жени Егоровой, 3к1",32.0,9/9,1804,3550000,1,15,1982,60.062696,30.30772
"Россия, Санкт-Петербург, улица Добровольцев, 40к2",97.0,1/5,6141,7100000,4,5,1970,59.831377,30.168032
"Россия, Ленинградская область, Всеволожский район, Мурино, улица Шоссе в Лаврики, 34к2",41.0,9/14,3976,4300000,1,14,2013,60.052196,30.453813
"Россия, Санкт-Петербург, Пушкинский район, посёлок Шушары, территория Славянка, Ростовская улица",56.7,2/9,5867,5450000,2,9,2012,59.740316,30.470324
"Россия, Санкт-Петербург, улица Дыбенко",54.8,6/9,3857,5000000,3,9,1970,59.904302,30.47213
"Россия, Санкт-Петербург, Кузнецовская улица, 15",53.0,4/5,2802,8400000,2,5,1956,59.871432,30.316102
"Россия, Санкт-Петербург, Кирочная улица, 57",72.0,6/9,6983,15997000,2,10,2016,59.94079,30.383871
"Россия, Санкт-Петербург, улица Коли Томчака, 23",146.0,4/8,3781,26700000,4,8,1938,59.885359,30.323854
"Россия, Санкт-Петербург, проспект Художников, 15А",46.0,9/9,2551,5050000,2,9,1974,60.039535,30.347183
"Россия, Санкт-Петербург, Русановская улица, 17к3",42.3,3/19,3289,4200000,1,23,2013,59.863224,30.511755
"Россия, Санкт-Петербург, Пушкин, улица Архитектора Данини, 5",50.0,5/10,3735,5100000,1,10,2014,59.69529,30.418411
"Россия, Санкт-Петербург, Бассейная улица, 75",58.1,5/5,5481,10000000,3,5,1962,59.863549,30.343644
"Россия, Санкт-Петербург, Большой проспект Петроградской стороны, 45",75.0,4/6,5324,15000000,3,,,59.960994,30.304675
"Россия, Санкт-Петербург, проспект Ветеранов, 151к1",65.8,7/9,6283,6000000,3,,,59.83584,30.132468
"Россия, Санкт-Петербург, Колпино, Загородная улица, 43к2",43.6,4/5,4272,3500000,2,3,1960,59.773959,30.596637
"Россия, Санкт-Петербург, 14-я линия Васильевского острова, 7",66.0,2/6,4401,7250000,2,,,59.935205,30.274653
"Россия, Санкт-Петербург, Среднерогатская улица, 20",22.9,17/17,4108,3105000,0,18,2019,59.820282,30.3382
"Россия, Ленинградская область, Всеволожский район, Мурино, Охтинская аллея, 14",36.7,7/24,598,4200000,1,25,2015,60.049644,30.42858
"Россия, Санкт-Петербург, Дунайский проспект, 68",42.0,3/12,2345,5400000,1,12,1982,59.846459,30.425247
"Россия, Санкт-Петербург, посёлок Парголово, Парашютная улица",85.6,9/19,3046,7100000,3,19,2014,60.063464,30.211843
"Россия, Санкт-Петербург, Ленинский проспект, 82к3",59.0,14/23,829,7200000,2,23,2011,59.859162,30.197425
"Россия, Санкт-Петербург, Ломоносов, улица Красного Флота, 1",83.0,4/4,7002,5300000,4,4,1939,59.911985,29.783877
"Россия, Санкт-Петербург, улица Ворошилова, 33к1",45.0,10/22,264,5700000,1,22,2013,59.932351,30.46577
"Россия, Санкт-Петербург, Комендантский проспект, 67",37.0,9/14,1378,4000000,1,25,2017,60.03771,30.225578
"Россия, Санкт-Петербург, улица Десантников, 28",50.0,4/9,747,4580000,2,9,1978,59.84998,30.200228
"Россия, Санкт-Петербург, Малая Зеленина улица, 1/22",127.7,4/10,649,27999000,4,10,2016,59.962435,30.282657
"Россия, Санкт-Петербург, Бассейная улица, 79",44.3,3/5,1700,4890000,2,5,1963,59.863545,30.345135
"Россия, Санкт-Петербург, проспект Ветеранов, 151к1",65.8,7/9,6283,6000000,3,,,59.83584,30.132468
"Россия, Санкт-Петербург, Петергоф, улица Аврова, 26к1",71.4,2/3,5725,11100000,2,4,2004,59.870637,29.92096
"Россия, Санкт-Петербург, Смольный проспект, 17",177.5,8/8,2935,36265000,4,10,2017,59.944292,30.39651
"Россия, Санкт-Петербург, проспект Просвещения, 15",43.6,4/25,1589,4975000,2,29,2017,60.053952,30.327196
"Россия, Санкт-Петербург, улица Катерников, 5к1",32.0,12/20,10237,4000000,0,20,2015,59.853356,30.154782
"Россия, Санкт-Петербург, Среднерогатская улица, 11",44.5,8/23,4813,4650000,1,26,2017,59.822711,30.33308
"Россия, Санкт-Петербург, улица Бутлерова, 40",50.4,18/24,1127,8299000,2,24,2009,60.010115,30.404316
"Россия, Санкт-Петербург, проспект Королёва, 63к2",44.0,18/25,2222,6380000,1,25,2011,60.033193,30.244919
"Россия, Санкт-Петербург, улица Мира, 9",120.0,4/6,1805,14000000,3,6,1911,59.959525,30.315913
"Россия, Санкт-Петербург, улица Александра Ульянова, 10",52.0,1/4,3617,5100000,2,4,1952,59.949095,30.419309
"Россия, Санкт-Петербург, улица Коллонтай, 5/1",55.0,4/8,4709,7350000,2,25,2013,59.913144,30.449996
"Россия, Санкт-Петербург, Долгоозёрная улица, 37к2",34.7,5/17,5261,4420000,1,17,2008,60.02133,30.268545
"Россия, Санкт-Петербург, Будапештская улица, 72к3",77.2,2/9,186,7900000,4,9,1976,59.846997,30.391066
"Россия, Санкт-Петербург, Московский проспект, 73к5",64.0,19/19,1479,14200000,2,19,2015,59.904126,30.312437
"Россия, Санкт-Петербург, Большая Монетная улица, 18",40.2,3/7,9465,7600000,2,7,1914,59.962665,30.322093
"Россия, Санкт-Петербург, Учебный переулок, 2",111.4,5/16,5034,12990000,3,16,2003,60.039386,30.333448
"Россия, Санкт-Петербург, улица Ленсовета, 20",107.7,6/7,4908,16900000,4,7,1959,59.853329,30.330304
"Россия, Санкт-Петербург, улица Адмирала Черокова, 22",24.2,9/17,1230,3399000,0,18,2015,59.850405,30.134983
"Россия, Санкт-Петербург, Пулковская улица, 2к1",130.0,15/16,3185,11650000,3,16,2009,59.841844,30.349366
"Россия, Санкт-Петербург, проспект Ветеранов, 171к4",24.1,6/12,8752,3100000,0,13,2017,59.83975,30.111825
"Россия, Санкт-Петербург, Ленинский проспект, 76к1",36.0,2/18,4601,4300000,1,20,2010,59.860184,30.187939
"Россия, Санкт-Петербург, улица Пограничника Гарькавого, 28к1, подъезд 2",31.4,4/4,2451,2790000,1,4,1964,59.836988,30.147227
"Россия, Санкт-Петербург, проспект Королёва, 73",44.4,17/19,1908,4290000,1,20,2017,60.036429,30.237373
"Россия, Санкт-Петербург, Пушкинский район, посёлок Шушары, Новгородский проспект, 7к2",36.0,7/25,4532,3850000,1,25,2014,59.809799,30.36426
"Россия, Санкт-Петербург, Лиственная улица, 18к1",71.6,2/9,3428,12000000,2,25,2015,60.028096,30.335784
"Россия, Санкт-Петербург, улица Вадима Шефнера, 10к2",30.0,6/17,496,4650000,1,18,2016,59.938072,30.205232
"Россия, Санкт-Петербург, посёлок Парголово, улица Валерия Гаврилина, 3к2",83.0,8/26,113,7800000,3,27,2012,60.073167,30.332011
"Россия, Санкт-Петербург, проспект Раевского, 14к2",90.0,9/13,2145,13500000,3,13,2005,60.013524,30.361817
"Россия, Ленинградская область, Ломоносовский район, Виллозское городское поселение, посёлок Новогорелово, улица Современников",43.5,5/5,6986,3350000,2,5,1971,59.788302,30.162589
"Россия, Санкт-Петербург, Пушкин, Оранжерейная улица, 51А",42.2,2/5,3523,6100000,1,5,1998,59.724437,30.416533
"Россия, Санкт-Петербург, посёлок Парголово, жилой комплекс Парнас",46.4,4/9,3977,5200000,2,,,60.070828,30.321357
"Россия, Санкт-Петербург, Воронежская улица, 84Б",42.0,2/5,9,6950000,1,5,1902,59.911543,30.346177
"Россия, Санкт-Петербург, улица Оптиков",25.4,2/25,973,3600000,0,25,2009,59.999287,30.2253
"Россия, Санкт-Петербург, Замшина улица, 29к4, подъезд 1",34.3,1/16,6002,3700000,1,,,59.978975,30.410748
"Россия, Санкт-Петербург, Приморский проспект, 43",88.9,2/5,3860,13200000,2,5,2015,59.983779,30.281094
"Россия, Санкт-Петербург, Комендантский проспект, 69",26.4,23/25,6144,3200000,0,27,2017,60.039413,30.224294
"Россия, Санкт-Петербург, посёлок Парголово, Парашютная улица",42.1,13/19,7003,4990000,1,21,2015,60.063464,30.211843
"Россия, Санкт-Петербург, Комендантский проспект, 69",48.2,22/25,2686,6300000,1,27,2017,60.039688,30.22424
"Россия, Санкт-Петербург, проспект Просвещения, 43",54.0,17/25,5635,6250000,2,29,2017,60.046203,30.363084
"Россия, Санкт-Петербург, Пушкинский район, посёлок Шушары, Новгородский проспект, 8",37.4,2/25,3782,3499000,1,26,2016,59.808776,30.368357
"Россия, Санкт-Петербург, Петергоф, Чебышёвская улица, 2/13, подъезд 2",64.0,6/7,4111,5500000,3,9,1978,59.868347,29.856227
"Россия, Санкт-Петербург, проспект Луначарского, 21А",52.9,2/16,5152,5700000,2,16,1988,60.040883,30.341254
"Россия, Санкт-Петербург, улица Софьи Ковалевской, 20к1",36.7,12/14,599,5633000,1,14,2003,60.01785,30.41497
"Россия, Санкт-Петербург, Выборгское шоссе, 15",41.0,20/20,5482,5950000,1,28,2012,60.05295,30.311862
"Россия, Санкт-Петербург, Учительская улица, 6",45.4,2/9,6284,4370000,2,,,60.035198,30.389503
"Россия, Санкт-Петербург, Гаврская улица, 3к1",65.0,1/3,5869,7000000,3,3,1951,60.017297,30.323827
"Россия, Санкт-Петербург, улица Кораблестроителей, 22к1, подъезд 1",67.0,6/9,3061,9000000,3,9,1974,59.944296,30.212409
"Россия, Санкт-Петербург, Автовская улица, 15к3",39.5,3/10,3291,5100000,1,10,2009,59.866775,30.270126
"Россия, Санкт-Петербург, Смольный проспект, 11",109.1,4/5,5727,21990000,2,4,2015,59.944328,30.394812
"Россия, Санкт-Петербург, 1-я Утиная улица, 28",72.2,5/6,2804,9400000,3,8,2008,60.033656,30.299384
"Россия, Санкт-Петербург, проспект Кузнецова, 14к2",40.0,15/20,3736,4590000,1,20,2010,59.860712,30.192583
"Россия, Санкт-Петербург, посёлок Парголово, жилой комплекс Парнас",64.0,2/12,2347,7800000,3,12,1978,60.070828,30.321357
"Россия, Санкт-Петербург, посёлок Парголово, улица Валерия Гаврилина, 15",35.8,3/25,4273,3900000,1,27,2017,60.080394,30.334832
"Россия, Санкт-Петербург, Учительская улица, 6",45.4,2/9,6284,4370000,2,,,60.035198,30.389503
"Россия, Санкт-Петербург, Русановская улица, 19к4",36.0,8/23,1231,4300000,1,23,2015,59.862601,30.513318
"Россия, Санкт-Петербург, улица Брянцева, 7к1, подъезд 1",62.5,10/25,653,9000000,2,25,2008,60.034897,30.404397
"Россия, Санкт-Петербург, Богатырский проспект, 63",92.6,17/17,748,11790000,3,22,2007,60.008698,30.202132
"Россия, Санкт-Петербург, Витебский проспект, 97к1, подъезд 2",50.0,21/25,835,6900000,1,25,2016,59.831657,30.370342
"Россия, Санкт-Петербург, Колпино, Павловская улица, 86",54.0,1/5,2937,3750000,3,5,1969,59.747167,30.566714
"Россия, Санкт-Петербург, улица Декабристов, 19",123.0,2/4,2552,13000000,4,4,1836,59.927815,30.300956
"Россия, Санкт-Петербург, 2-я Жерновская улица, 28",103.3,2/9,1591,12500000,3,9,2009,59.964962,30.49157
"Россия, Санкт-Петербург, Железноводская улица, 32",102.0,11/13,1701,23000000,2,13,2011,59.952078,30.250381
"Россия, Санкт-Петербург, Ленинский проспект, 80к1",87.0,8/22,360,7900000,3,22,2010,59.859659,30.19456
"Россия, Санкт-Петербург, Светлановский проспект, 117",51.0,8/9,5326,4700000,2,9,1971,60.045044,30.404164
"Россия, Санкт-Петербург, улица Генерала Симоняка, 7",61.0,4/9,4404,5200000,3,9,1969,59.830042,30.201342
"Россия, Санкт-Петербург, Шлиссельбургский проспект, 18к1",56.0,8/12,10243,5800000,2,12,1989,59.838001,30.503454
"Россия, Санкт-Петербург, Пушкинский район, Павловск, Детскосельская улица, 7",44.0,1/4,1807,3590000,2,4,1969,59.689223,30.43096
"Россия, Санкт-Петербург, проспект Просвещения, 15",82.0,18/23,5262,8950000,3,29,2017,60.053952,30.327196
"Россия, Санкт-Петербург, проспект Космонавтов, 76",43.8,3/9,3186,5700000,2,,,59.839095,30.361512
"Россия, Санкт-Петербург, набережная Обводного канала, 123",76.9,2/4,1131,8490000,3,,,59.910194,30.323046
"Россия, Санкт-Петербург, Каменноостровский проспект, 9",113.0,4/6,2031,21800000,4,6,1911,59.95839,30.319021
"Россия, Санкт-Петербург, улица Композиторов, 20к1",61.0,1/9,2453,5000000,3,9,1979,60.05905,30.315374
"Россия, Санкт-Петербург, Костромской проспект, 14к2",42.0,6/9,7871,6500000,1,9,2013,60.013749,30.31673
"Россия, Санкт-Петербург, Тверская улица, 18",81.2,4/7,2231,13800000,3,7,1957,59.947122,30.386314
"Россия, Санкт-Петербург, улица Черкасова, 21",63.0,5/9,265,5800000,3,9,1970,60.029036,30.42858
"Россия, Санкт-Петербург, Барочная улица, 4Ас3",92.0,6/8,6150,22240108,3,,,59.96584,30.285981
"Россия, Санкт-Петербург, улица Партизана Германа, 14к2",46.0,9/9,5035,4250000,2,,,59.834759,30.17848
"Россия, Санкт-Петербург, Витебский проспект",41.2,7/9,4710,4900000,2,9,1966,59.851783,30.365626
"Россия, Ленинградская область, Ломоносовский район, Аннинское городское поселение, промышленная зона Пески, Красносельское шоссе",58.0,4/16,8760,5500000,2,16,2006,59.792101,30.080806
"Россия, Санкт-Петербург, Пушкин, Малиновская улица, 11к2",56.0,1/5,4814,5600000,1,6,2010,59.69711,30.419417
"Россия, Санкт-Петербург, Пулковская улица, 2к1",168.0,11/16,11,15700000,4,16,2009,59.841844,30.349366
"Россия, Санкт-Петербург, Туристская улица",40.0,17/20,3618,5900000,1,20,2010,59.99701,30.208088
"Россия, Санкт-Петербург, посёлок Парголово, улица Николая Рубцова, 9, подъезд 1",68.7,19/27,4912,9000000,3,28,2014,60.077184,30.341479
"Россия, Санкт-Петербург, проспект Римского-Корсакова, 109-111",81.5,2/4,1379,9999000,3,4,1913,59.91816,30.280007
"Россия, Санкт-Петербург, улица Шевченко, 17",63.0,9/10,114,7400000,4,9,1967,59.934952,30.246078
"Россия, Санкт-Петербург, улица Тельмана, 41к1",37.3,13/17,3525,4680000,1,17,2007,59.89213,30.483359
"Россия, Санкт-Петербург, Пушкинский район, посёлок Шушары, Старорусский проспект, 6",40.0,21/25,9467,4150000,1,25,2017,59.8105,30.358287
"Россия, Санкт-Петербург, Комендантская площадь, 8",118.0,17/17,187,18000000,3,18,2009,60.005967,30.259238
"Россия, Санкт-Петербург, Свердловская набережная, 58",70.7,9/16,3429,8755000,2,16,2014,59.956183,30.40676
"Россия, Санкт-Петербург, Сестрорецк, Приморское шоссе, 261",57.7,2/4,4537,5799999,2,10,1997,60.077265,29.964708
"Россия, Санкт-Петербург, Ленинский проспект, 82к1",62.0,9/20,1480,7699000,2,20,2011,59.858367,30.196257
"Россия, Санкт-Петербург, Ленинский проспект, 82к1",28.9,5/14,6004,4150000,0,20,2011,59.858367,30.196257
"Россия, Санкт-Петербург, улица Димитрова, 43",83.5,5/18,2687,10100000,3,18,2007,59.851318,30.41859
"Россия, Санкт-Петербург, Большой Сампсониевский проспект, 4-6",45.0,5/23,5487,9000000,1,23,2008,59.957354,30.343914
"Россия, Санкт-Петербург, проспект Обуховской Обороны, 97",90.9,2/5,6987,6350000,3,5,1917,59.897095,30.432505
"Россия, Санкт-Петербург, Суздальское шоссе, 24к3",59.6,2/7,5636,6780000,2,8,2017,60.058147,30.274204
"Россия, Санкт-Петербург, проспект Наставников, 3к1",57.0,3/13,2151,6100000,2,13,2006,59.936733,30.489234
"Россия, Санкт-Петербург, Богатырский проспект, 63",58.3,17/18,4605,7800000,2,18,2010,60.008698,30.202132
"Россия, Санкт-Петербург, территория Сосновая Поляна",75.4,6/9,497,6500000,3,9,1971,59.835247,30.154567
"Россия, Санкт-Петербург, улица Руднева, 15Д",30.0,3/5,1911,3400000,1,5,1973,60.044689,30.365536
"Россия, Санкт-Петербург, Кременчугская улица, 17к3",95.0,3/10,977,14990000,3,11,2015,59.92042,30.370063
"Россия, Санкт-Петербург, улица Верности, 3",44.7,5/5,3861,4850000,2,5,1963,60.00868,30.39633
"Россия, Санкт-Петербург, посёлок Парголово, Парашютная улица",38.0,18/24,6285,4680000,1,24,2012,60.063464,30.211843
"Россия, Санкт-Петербург, Петергофское шоссе, 45",92.7,7/19,3978,13200000,3,20,2012,59.848077,30.152869
"Россия, Санкт-Петербург, Серебристый бульвар, 34к1",31.0,6/9,602,3500000,1,9,1978,60.013735,30.283277
"Россия, Санкт-Петербург, Комендантский проспект, 17к2",79.6,12/12,5154,7849000,3,12,1988,60.011234,30.25975
"Россия, Санкт-Петербург, Ленинский проспект, 104",78.1,4/14,654,11000000,2,16,2006,59.852624,30.226881
"Россия, Санкт-Петербург, Новосибирская улица, 14",55.0,2/5,5872,5500000,3,5,1962,59.991795,30.303813
"Россия, Санкт-Петербург, Сестрорецк, улица Николая Соколова, 36",107.0,2/4,2554,11700000,3,4,2007,60.053296,30.006488
"Россия, Санкт-Петербург, Ждановская улица, 45",110.0,9/10,2349,24500000,3,15,2017,59.962719,30.267485
"Россия, Санкт-Петербург, Ушаковская набережная, 1к3",26.3,13/18,7004,5125000,0,20,2016,59.983094,30.316892
"Россия, Санкт-Петербург, улица Черняховского, 26-28",76.6,3/4,3292,8900000,3,4,1916,59.919279,30.357945
"Россия, Санкт-Петербург, Комендантский проспект, 21к2",54.2,3/12,3737,5990000,2,12,1988,60.01432,30.255322
"Россия, Ленинградская область, Всеволожский район, Мурино, проспект Авиаторов Балтики, 13",73.0,15/16,5328,5400000,2,18,2016,60.056279,30.441399
"Россия, Санкт-Петербург, территория Сосновая Поляна",58.4,1/5,363,4990000,2,5,1999,59.835247,30.154567
"Россия, Санкт-Петербург, Новочеркасский проспект, 33к3",98.5,10/13,5730,14900000,3,10,2009,59.931283,30.406508
"Россия, Санкт-Петербург, улица Композиторов, 18",38.0,17/25,1236,5000000,0,25,2010,60.056481,30.312176
"Россия, Санкт-Петербург, Кушелевская дорога, 3к10",62.4,2/25,751,7700000,2,25,2016,59.98611,30.373756
"Россия, Санкт-Петербург, посёлок Парголово, Парашютная улица",38.0,18/24,6285,4680000,1,24,2012,60.063464,30.211843
"Россия, Санкт-Петербург, Репищева улица, 10к2",65.0,24/24,2455,8350000,2,24,2016,60.02124,30.277771
"Россия, Санкт-Петербург, Среднерогатская улица, 20",47.7,2/17,3783,5500000,2,18,2019,59.820282,30.3382
"Россия, Санкт-Петербург, улица Грота, 1-3В",104.0,4/10,2940,24200000,3,6,1934,59.972604,30.292413
"Россия, Санкт-Петербург, Ленинский проспект, 97к3",35.0,3/14,4275,3849000,1,14,1984,59.851747,30.213811
"Россия, Санкт-Петербург, Кондратьевский проспект, 62к3",78.9,2/18,1592,8400000,2,17,2003,59.980258,30.391731
"Россия, Санкт-Петербург, Ковалёвская улица, 26",34.5,3/18,2806,3399000,1,18,2016,59.979326,30.512482
"Россия, Санкт-Петербург, Удельный проспект, 51к1",31.0,3/5,4115,3950000,1,,,60.023992,30.312643
"Россия, Санкт-Петербург, Подольская улица, 1-3-5",110.0,2/4,1702,14290000,3,,,59.917384,30.322372
"Россия, Санкт-Петербург, проспект Маршала Блюхера, 9к1",64.0,6/16,10246,7395000,2,17,2017,59.980128,30.376738
"Россия, Санкт-Петербург, проспект Косыгина, 9к1",42.3,2/12,3063,4400000,2,12,1985,59.942043,30.470414
"Россия, Санкт-Петербург, Гаккелевская улица",60.1,6/14,6152,7200000,1,16,2000,60.001185,30.255816
"Россия, Санкт-Петербург, Малая Бухарестская улица",85.0,3/17,115,9990000,3,17,2005,59.84814,30.41409
"Россия, Ленинградская область, Всеволожский район, Мурино, бульвар Менделеева, 13",25.4,10/18,3620,2999000,0,19,2015,60.053894,30.42328
"Россия, Ленинградская область, Ломоносовский район, Аннинское городское поселение, промышленная зона Пески, Красносельское шоссе",42.9,4/16,836,4300000,1,16,2011,59.792101,30.080806
"Россия, Санкт-Петербург, Октябрьская набережная, 26к3",35.0,3/5,4916,4200000,1,5,2006,59.908222,30.431454
"Россия, Санкт-Петербург, Среднерогатская улица, 11",25.2,5/11,7874,3180000,0,26,2017,59.822711,30.33308
"Россия, Санкт-Петербург, Заставская улица, 46к3",74.0,5/20,2235,11900000,2,20,2017,59.885548,30.313074
"Россия, Санкт-Петербург, Афонская улица, 20",51.3,9/10,1381,6200000,2,10,1998,60.030034,30.301333
"Россия, Санкт-Петербург, Заозёрная улица, 3",71.7,4/14,5493,11700000,2,6,1905,59.905181,30.324187
"Россия, Ленинградская область, Всеволожский район, Мурино, Воронцовский бульвар, 10",31.8,14/22,1135,3200000,0,23,2016,60.056714,30.421968
"Россия, Санкт-Петербург, Центральный район, улица Некрасова, 58",144.0,5/7,3980,14000000,5,7,1914,59.93855,30.367395
"Россия, Санкт-Петербург, проспект Авиаконструкторов, 49",25.0,16/16,6005,3500000,0,16,2006,60.027898,30.223611
"Россия, Санкт-Петербург, Пушкинский район, посёлок Шушары, территория Детскосельский, Центральная улица",80.4,3/9,8764,5500000,3,9,2014,59.727159,30.467468
"Россия, Санкт-Петербург, Казанская улица",45.4,3/3,267,8999000,1,,,59.930007,30.315293
"Россия, Санкт-Петербург, набережная реки Фонтанки, 28",78.2,3/5,13,22500000,2,5,1831,59.939086,30.343213
"Россия, Санкт-Петербург, Кубинская улица, 38",55.0,1/5,2153,5400000,3,5,1961,59.861218,30.297066
"Россия, Санкт-Петербург, улица Ефимова, 6",73.0,2/5,3189,8500000,2,,,59.924578,30.323333
"Россия, Санкт-Петербург, посёлок Парголово, улица Фёдора Абрамова, 18к1",66.3,8/24,3526,6900000,2,28,2014,60.079895,30.341713
"Россия, Санкт-Петербург, Среднерогатская улица, 11",68.9,2/23,4816,6950000,2,26,2017,59.822711,30.33308
"Россия, Санкт-Петербург, Кронштадт, улица Восстания, 16",43.0,2/5,4407,3800000,2,5,1963,59.993505,29.787749
"Россия, Санкт-Петербург, Петергофское шоссе, 19/33",43.5,6/9,4609,4750000,2,9,1979,59.847318,30.183007
"Россия, Санкт-Петербург, Пушкин, Кедринская улица, 12",72.0,5/6,1812,9500000,2,6,2010,59.69924,30.411718
"Россия, Санкт-Петербург, Ленинский проспект, 57к1",41.8,12/17,6990,4300000,1,17,2010,59.861756,30.175569
"Россия, Санкт-Петербург, Пушкин, улица Генерала Хазова, 8",53.4,2/8,5036,4950000,2,8,1981,59.738162,30.402421
"Россия, Санкт-Петербург, Кушелевская дорога, 7к6",35.7,4/21,2350,4150000,1,22,2016,59.987564,30.379882
"Россия, Санкт-Петербург, улица Нахимова, 15",135.0,10/16,188,26500000,3,17,2006,59.94115,30.218069
"Россия, Санкт-Петербург, Шуваловский проспект, 63Б",79.8,6/17,4539,8800000,2,17,2010,60.023947,30.222821
"Россия, Ленинградская область, Всеволожский район, Мурино, улица Шоссе в Лаврики, 87",110.0,10/18,2032,8190000,3,18,2015,60.065741,30.457281
"Россия, Санкт-Петербург, 18-я линия Васильевского острова, 7",90.0,7/7,981,8300000,3,6,1953,59.933199,30.270297
"Россия, Санкт-Петербург, Октябрьская набережная, 64к1",48.0,8/9,1481,4300000,2,9,1973,59.880794,30.454182
"Россия, Санкт-Петербург, Красное Село, Кингисеппское шоссе, 10к2",29.0,2/5,9468,2800000,1,5,1969,59.721738,30.073664
"Россия, Санкт-Петербург, Малая Бухарестская улица",76.0,6/12,4715,9912346,3,12,1982,59.84814,30.41409
"Россия, Санкт-Петербург, улица Кораблестроителей, 42к1",38.5,12/16,2690,5200000,1,16,1982,59.957769,30.226872
"Россия, Санкт-Петербург, Мебельная улица",94.1,2/25,3293,15100000,3,24,2013,59.993419,30.222883
"Россия, Санкт-Петербург, улица Антонова-Овсеенко, 23к2",29.4,4/5,498,3950000,1,5,1970,59.909414,30.475876
"Россия, Санкт-Петербург, Ленинский проспект, 82к2",43.0,6/22,2555,5350000,1,22,2014,59.859185,30.196033
"Россия, Санкт-Петербург, проспект Луначарского, 15к1",120.8,15/25,5267,18700000,3,25,2007,60.04211,30.333448
"Россия, Санкт-Петербург, Большая Подьяческая улица, 21",127.6,3/4,655,18000000,3,,,59.923847,30.305196
"Россия, Санкт-Петербург, 4-я линия Васильевского острова, 7",158.0,2/4,7005,21750000,3,4,1917,59.941078,30.284804
"Россия, Санкт-Петербург, Плуталова улица, 18",32.7,1/6,1914,5650000,1,6,1960,59.964989,30.30605
"Россия, Санкт-Петербург, Колпинский район, посёлок Петро-Славянка, Советский проспект, 30",25.0,22/25,5731,2990000,0,27,2018,59.803282,30.515537
"Россия, Санкт-Петербург, Колпино, бульвар Трудящихся, 35к3",55.5,3/9,756,4200000,2,9,1984,59.734312,30.586468
"Россия, Санкт-Петербург, Морская набережная, 9",127.0,10/11,5640,11890000,4,12,1984,59.938162,30.217458
"Россия, Санкт-Петербург, улица Цимбалина, 25",25.0,7/25,5156,3100000,0,25,2018,59.884636,30.426684
"Россия, Санкт-Петербург, Константиновский проспект, 26",60.0,5/5,607,11200000,1,5,1909,59.972483,30.267853
"Россия, Санкт-Петербург, Шлиссельбургский проспект, 9",180.0,6/16,6287,17500000,5,16,2002,59.840053,30.491695
"Россия, Санкт-Петербург, улица Полярников, 5",93.0,5/5,5332,8050000,4,5,1957,59.877868,30.438587
"Россия, Санкт-Петербург, Главная улица, 25",77.0,4/4,365,12600000,2,6,2006,60.021164,30.290518
"Россия, Санкт-Петербург, Дальневосточный проспект, 12к2",75.7,3/13,2812,13280000,3,13,2018,59.913726,30.438479
"Россия, Санкт-Петербург, Малая Зеленина улица, 1/22",127.7,4/10,2943,28000000,4,10,2016,59.962435,30.282657
"Россия, Санкт-Петербург, проспект Художников, 30к2",60.0,9/9,3862,6100000,3,9,1975,60.051392,30.353912
"Россия, Санкт-Петербург, Пушкин, улица Архитектора Данини, 5",45.3,7/10,4122,4900000,1,10,2014,59.69529,30.418411
"Россия, Санкт-Петербург, проспект Луначарского, 33к1",58.3,3/9,7876,5600000,3,,,60.038762,30.349285
"Россия, Санкт-Петербург, Петергофское шоссе, 45",43.0,8/12,1707,5900000,1,20,2012,59.848077,30.152869
"Россия, Санкт-Петербург, Канонерская улица, 19-21, подъезд 2",92.0,3/6,3064,8800000,3,,,59.919626,30.289386
"Россия, Санкт-Петербург, Смоленская улица, 13",93.0,10/17,1239,15000000,3,14,2014,59.904103,30.323612
"Россия, Санкт-Петербург, Индустриальный проспект, 13",51.7,7/12,5880,5180000,2,,,59.939406,30.47761
"Россия, Санкт-Петербург, проспект Просвещения, 15",42.7,14/25,1594,4820000,1,29,2017,60.053952,30.327196
"Россия, Санкт-Петербург, Витебский проспект, 73к1",54.0,1/14,10248,6200000,3,,,59.841346,30.367315
"Россия, Санкт-Петербург, Свердловская набережная, 58",42.0,8/16,3431,5695386,1,16,2014,59.956183,30.40676
"Россия, Ленинградская область, Всеволожский район, Мурино, улица Шувалова, 3",53.0,13/22,3740,5600000,2,22,2014,60.052092,30.423711
"Россия, Санкт-Петербург, Петергофское шоссе, 57",105.9,10/11,3784,15400000,3,17,2010,59.848552,30.136178
"Россия, Санкт-Петербург, Ярославский проспект, 27",47.1,6/8,839,8200000,1,10,2013,60.013479,30.321501
"Россия, Санкт-Петербург, Барочная улица, 4",52.0,2/5,6006,11230000,1,,,59.965363,30.286682
"Россия, Санкт-Петербург, набережная Обводного канала, 55Г",80.1,3/4,116,6800000,2,4,1900,59.915544,30.358673
"Россия, Санкт-Петербург, Курляндская улица, 22-24",95.2,4/5,1136,7690000,3,,,59.911687,30.282738
"Россия, Санкт-Петербург, Коломяжский проспект, 20",50.0,10/12,5268,6400000,1,24,2002,59.998774,30.298315
"Россия, Санкт-Петербург, улица Бабушкина, 66к1",45.9,3/5,14,3970000,2,5,1961,59.864308,30.456059
"Россия, Санкт-Петербург, улица Брянцева, 15к2",85.4,2/25,268,11150000,3,25,2007,60.041112,30.409994
"Россия, Санкт-Петербург, Спасский переулок, 6-8",52.9,5/5,8771,7200000,2,5,1860,59.928943,30.318222
"Россия, Санкт-Петербург, территория Горелово, Красносельское шоссе, 54к6",87.9,2/12,2456,6850000,3,16,2012,59.793482,30.150821
"Россия, Санкт-Петербург, Большеохтинский проспект, 41",67.0,5/5,3621,6650000,3,5,1960,59.958629,30.411314
"Россия, Санкт-Петербург, Петровский проспект, 5",76.7,6/10,5495,13844350,2,12,2017,59.959233,30.27221
"Россия, Санкт-Петербург, улица Солдата Корзуна, 28",32.2,1/12,1387,3380000,1,12,1972,59.836075,30.217278
"Россия, Санкт-Петербург, улица Сикейроса, 6к1",60.4,5/9,2236,5500000,3,,,60.035841,30.32778
"Россия, Санкт-Петербург, улица Бабушкина, 24",81.0,1/5,4280,8780000,3,5,1959,59.891223,30.431104
"Россия, Санкт-Петербург, Пушкинский район, посёлок Шушары, территория Пулковское, Образцовая улица, 9А",68.0,2/4,4920,6400000,2,,2016,59.755123,30.367126
"Россия, Санкт-Петербург, Шлиссельбургский проспект, 9",180.0,6/16,6287,17500000,5,16,2002,59.840053,30.491695
"Россия, Санкт-Петербург, Балтийский бульвар, 4",76.0,9/24,4821,8750000,2,25,2018,59.868984,30.155707
"Россия, Санкт-Петербург, Сестрорецк, улица Токарева, 13А",70.0,3/8,2033,9500000,3,8,2007,60.089606,29.955069
"Россия, Санкт-Петербург, проспект Космонавтов, 65к4",55.0,6/14,611,8300000,2,16,2008,59.836735,30.35658
"Россия, Санкт-Петербург, Красное Село, улица Первого Мая, 3",25.0,4/6,4717,2600000,0,6,2015,59.730352,30.09985
"Россия, Санкт-Петербург, Комендантский проспект, 60к1",56.9,10/18,6999,7400000,2,28,2017,60.035351,30.225614
"Россия, Санкт-Петербург, Колпино, Понтонный проезд",63.0,4/5,3527,4800000,3,5,1981,59.751687,30.628904
"Россия, Санкт-Петербург, Ириновский проспект, 35",50.0,5/9,5641,4250000,2,,,59.959413,30.481778
"Россия, Санкт-Петербург, Дальневосточный проспект, 25к1, подъезд 4",42.7,8/25,983,5250000,1,25,2018,59.903837,30.453786
"Россия, Санкт-Петербург, Кирочная улица, 57",110.0,9/9,4610,31990000,3,10,2016,59.94079,30.383871
"Россия, Санкт-Петербург, Русановская улица, 11",35.0,3/25,499,3900000,1,23,2013,59.863513,30.505943
"Россия, Санкт-Петербург, Канареечная улица, 12",54.0,2/10,2352,6950000,3,10,1968,59.93264,30.246491
"Россия, Санкт-Петербург, Российский проспект, 14",49.7,10/12,2155,5500000,2,16,1991,59.929682,30.472355
"Россия, Санкт-Петербург, Благодатная улица, 30",48.0,6/7,9469,6700000,2,7,1972,59.876228,30.323989
"Россия, Санкт-Петербург, Благодатная улица, 5",44.0,2/5,3296,5050000,2,5,1960,59.874657,30.300354
"Россия, Санкт-Петербург, Гжатская улица, 22к2",102.0,2/17,5039,12500000,3,19,2012,60.01119,30.386736
"Россия, Санкт-Петербург, Колпинский район, посёлок Понтонный, улица Судостроителей, 9",70.4,1/3,4129,4498000,3,3,1951,59.783647,30.64051
"Россия, Санкт-Петербург, улица Жукова, 1",53.1,2/14,1484,6867559,1,15,,59.962435,30.405062
"Россия, Санкт-Петербург, бульвар Красных Зорь, 24",31.0,1/5,4411,3450000,1,,,59.868401,30.436108
"Россия, Санкт-Петербург, Лиговский проспект, 101",71.0,5/5,3190,9000000,2,5,1832,59.922237,30.35463
"Россия, Санкт-Петербург, Приморский проспект, 65",89.6,7/12,6153,16128000,2,14,2015,59.983067,30.26859
"Россия, Санкт-Петербург, Рыбацкий проспект, 17",97.0,10/12,2696,9950000,3,20,2010,59.841871,30.496052
"Россия, Санкт-Петербург, улица Трефолева, 23",48.0,1/2,189,5700000,2,2,1949,59.891561,30.268383
"Россия, Санкт-Петербург, Варшавская улица, 51к1",35.1,2/15,7006,4850000,1,15,1986,59.855308,30.313541
"Россия, Санкт-Петербург, улица Союза Печатников, 13-15",93.3,5/6,5732,11160000,3,,,59.923559,30.290518
"Россия, Санкт-Петербург, проспект Науки, 9",31.0,1/5,656,3700000,1,5,1965,60.016874,30.373217
"Россия, Санкт-Петербург, Балтийский бульвар, 4",46.8,19/25,5157,5400000,1,25,2018,59.868984,30.155707
"Россия, Санкт-Петербург, Варшавская улица, 19к5",26.0,2/20,4542,4150000,0,20,2009,59.873735,30.310505
"Россия, Санкт-Петербург, Учительская улица, 19к3",26.1,7/16,757,3750000,0,16,2003,60.032182,30.401343
"Россия, Санкт-Петербург, Каменноостровский проспект, 52",58.0,5/5,1920,8450000,2,5,1897,59.971033,30.306184
"Россия, Санкт-Петербург, Тимуровская улица, 18",44.7,1/5,3987,4500000,2,5,1971,60.044761,30.405071
"Россия, Санкт-Петербург, проспект Королёва, 61",43.0,8/22,7878,6500000,1,24,2010,60.031207,30.243419
"Россия, Санкт-Петербург, Ораниенбаумская улица, 21",219.0,8/9,1814,35000000,3,9,2000,59.961251,30.29739
"Россия, Санкт-Петербург, Дибуновская улица, 50",79.0,11/19,5333,14500000,2,25,2005,59.98485,30.260029
"Россия, Санкт-Петербург, проспект Маршала Блюхера, 7к2",41.9,7/16,2813,5305000,1,16,2017,59.979529,30.373477
"Россия, Санкт-Петербург, улица Крыленко, 45к1",45.1,3/5,2944,4250000,2,5,1968,59.901242,30.494265
"Россия, Санкт-Петербург, Кировский район, муниципальный округ Княжево",190.0,16/17,372,28900000,5,17,2008,59.83706,30.27141
"Россия, Санкт-Петербург, Среднерогатская улица, 11",35.8,20/23,4822,4285000,1,26,2017,59.822711,30.33308
"Россия, Санкт-Петербург, Кондратьевский проспект, 64к9",24.4,18/24,3432,3950000,0,25,2014,59.983252,30.390743
"Россия, Санкт-Петербург, Ленинский проспект, 78к1",34.0,8/18,3865,4300000,1,22,2010,59.859361,30.19182
"Россия, Санкт-Петербург, Таврическая улица, 31-33",184.0,5/7,6288,34990000,4,5,1937,59.945968,30.378364
"Россия, Санкт-Петербург, Верейская улица, 42/8",22.0,2/4,3065,3600000,0,3,1955,59.913722,30.328669
"Россия, Санкт-Петербург, улица Гастелло, 28",73.0,5/7,3623,11800000,3,7,1957,59.858552,30.332487
"Россия, Санкт-Петербург, Киевская улица, 3",142.0,6/19,2557,37000000,4,20,2014,59.902298,30.320899
"Россия, Санкт-Петербург, Бухарестская улица, 68к2",58.3,1/5,5269,5450000,3,5,1968,59.874905,30.380717
"Россия, Санкт-Петербург, набережная Чёрной речки, 12",63.4,4/5,1708,7500000,2,6,1959,59.989832,30.29933
"Россия, Санкт-Петербург, улица Белышева, 5/6",72.0,12/19,1139,9800000,3,25,2014,59.909856,30.455727
"Россия, Санкт-Петербург, Кондратьевский проспект, 62к6, подъезд 7",100.0,12/14,10250,10900000,3,17,2002,59.981217,30.389988
"Россия, Ленинградская область, Всеволожский район, Мурино, улица Шувалова, 4",41.8,2/20,1597,4500000,1,21,2015,60.05105,30.425148
"Россия, Санкт-Петербург, Новоколомяжский проспект, 13",100.5,11/16,3785,14000000,3,17,2002,60.030564,30.293213
"Россия, Санкт-Петербург, Измайловский проспект, 16/30",91.0,2/6,1243,9300000,4,7,1911,59.911448,30.308232
"Россия, Санкт-Петербург, Пионерская улица, 50",115.0,10/12,3433,28500000,3,14,2012,59.963539,30.273171
"Россия, Санкт-Петербург, Купчинская улица, 13к3, подъезд 1",52.0,5/9,3743,4900000,2,9,1974,59.839542,30.384401
"Россия, Санкт-Петербург, проспект Непокорённых, 74",59.0,3/9,2458,6500000,2,,,59.994171,30.431868
"Россия, Санкт-Петербург, улица Лизы Чайкиной, 20",62.3,5/6,3529,12300000,1,6,,59.95521,30.303382
"Россия, Санкт-Петербург, Звенигородская улица, 6",150.0,4/4,8774,15200000,7,4,1826,59.922282,30.337005
"Россия, Санкт-Петербург, Петровский проспект, 5",76.7,2/10,5496,13077500,1,12,2017,59.959233,30.27221
"Россия, Санкт-Петербург, набережная Обводного канала, 66",36.0,1/5,2238,5000000,2,5,1884,59.914191,30.337167
"Россия, Санкт-Петербург, Юнтоловский проспект, 49к7",67.0,5/5,6011,6800000,2,5,2014,60.028923,30.145727
"Россия, Санкт-Петербург, Капитанская улица, 4",137.6,8/12,1395,24700000,4,23,2004,59.954773,30.214808
"Россия, Санкт-Петербург, 2-я Берёзовая аллея, 34",206.0,3/3,269,99000000,4,2,2002,59.977539,30.282244
"Россия, Санкт-Петербург, улица Крыленко, 1к1с4",24.5,4/14,5883,2900000,0,26,2016,59.892613,30.453777
"Россия, Санкт-Петербург, Миргородская улица, 14",73.4,4/4,5645,12000000,4,4,1913,59.925344,30.372273
"Россия, Санкт-Петербург, посёлок Парголово, Парашютная улица",42.1,13/19,7003,4990000,1,21,2015,60.063464,30.211843
"Россия, Санкт-Петербург, проспект Стачек, 73",88.3,6/7,2353,8500000,3,7,1955,59.86837,30.25958
"Россия, Санкт-Петербург, улица Шелгунова, 28",44.6,2/5,4615,4550000,2,5,1966,59.862772,30.443995
"Россия, Санкт-Петербург, Суздальское шоссе, 12",84.0,3/7,2038,7780000,2,7,2017,60.06311,30.289655
"Россия, Санкт-Петербург, Колпино, проспект Ленина, 20/5",94.4,3/5,841,6400000,4,5,1956,59.749715,30.583898
"Россия, Санкт-Петербург, территория Шувалово, Береговая улица, 24",97.0,5/6,2156,11600000,3,6,2009,60.060725,30.288443
"Россия, Санкт-Петербург, Костромской проспект, 10",36.8,8/10,4924,6400000,1,9,2014,60.013024,30.318428
"Россия, Санкт-Петербург, Варшавская улица, 6к2",42.1,10/15,2700,8850000,1,16,2016,59.879353,30.315266
"Россия, Ленинградская область, Всеволожский район, Мурино, улица Шувалова, 16/9, подъезд 5",37.0,12/25,1492,3850000,1,20,2015,60.056674,30.429334
"Россия, Санкт-Петербург, Военная улица, 18к2",89.6,8/12,119,14150000,3,12,2016,59.918309,30.369866
"Россия, Санкт-Петербург, Таврическая улица, 31-33",184.0,5/7,6288,34990000,4,5,1937,59.945968,30.378364
"Россия, Санкт-Петербург, проспект Луначарского, 62к1",57.7,1/9,4413,4900000,3,,,60.041148,30.343204
"Россия, Санкт-Петербург, проспект Стачек, 212к3",78.9,1/14,3298,8400000,3,14,2007,59.845785,30.226863
"Россия, Санкт-Петербург, улица Лазо, 5, подъезд 3",44.9,9/11,614,5100000,1,3,1960,59.957372,30.48644
"Россия, Санкт-Петербург, проспект Стачек, 92к3",226.0,8/8,19,29000000,4,11,2011,59.868546,30.263029
"Россия, Санкт-Петербург, Большеохтинский проспект, 35",72.0,3/5,5733,7500000,3,5,1956,59.956719,30.411143
"Россия, Санкт-Петербург, проспект Королёва, 71к1",27.0,17/19,1921,3290000,0,21,2016,60.035526,30.238739
"Россия, Санкт-Петербург, посёлок Парголово, Заречная улица, 25",79.2,2/26,3869,9399000,3,26,2012,60.074074,30.329496
"Россия, Санкт-Петербург, посёлок Парголово, улица Фёдора Абрамова, 8",60.0,20/25,7879,6250000,2,27,2013,60.073759,30.338317
"Россия, Санкт-Петербург, Софийская улица, 72",45.0,1/5,500,4050000,2,5,1966,59.843584,30.435497
"Россия, Санкт-Петербург, проспект Художников, 20к1",47.0,6/9,6154,5100000,2,,,60.044028,30.347839
"Россия, Санкт-Петербург, проспект Королёва, 21к1",103.0,4/21,3788,14300000,4,25,2006,60.011914,30.279567
"Россия, Санкт-Петербург, Кирочная улица, 31к2",62.0,2/9,190,20400000,2,8,2015,59.943061,30.3655
"Россия, Санкт-Петербург, Владимирский проспект, 3",85.0,3/4,984,30000000,3,5,1838,59.931576,30.347552
"Россия, Санкт-Петербург, проспект Сизова, 21",80.5,2/17,5041,12000000,3,25,2007,60.014796,30.278175
"Россия, Санкт-Петербург, Рыбацкий проспект, 35к2",92.0,16/16,759,8800000,3,16,2007,59.839095,30.507613
"Россия, Санкт-Петербург, Резная улица, 6",104.0,9/10,7008,26990000,3,10,2012,59.965512,30.281346
"Россия, Санкт-Петербург, улица Савушкина, 60А",56.7,4/4,5160,6500000,2,4,1958,59.983882,30.276495
"Россия, Санкт-Петербург, проспект Космонавтов, 65к11",35.2,15/18,2948,5799000,1,18,2012,59.836025,30.354379
"Россия, Санкт-Петербург, Колпино, Пролетарская улица, 115",56.7,4/9,3990,4800000,3,,,59.742447,30.566606
"Россия, Санкт-Петербург, Среднерогатская улица, 12к1",57.0,12/18,2558,7200000,3,18,2018,59.824593,30.337419
"Россия, Санкт-Петербург, Учительская улица, 17к2",50.0,2/5,5340,4900000,3,,,60.031481,30.398549
"Россия, Санкт-Петербург, Кировский район, муниципальный округ Княжево",27.0,9/9,374,3100000,1,9,1965,59.852606,30.288407
"Россия, Санкт-Петербург, Комендантский проспект, 71",36.0,18/21,4718,4690000,1,27,2017,60.041099,30.221608
"Россия, Санкт-Петербург, Ленинский проспект, 91",76.0,4/9,6291,9600000,3,16,2010,59.85463,30.206642
"Россия, Санкт-Петербург, проспект Маршала Блюхера, 7к2",57.1,13/13,2814,7220000,2,16,2017,59.979529,30.373477
"Россия, Ленинградская область, Всеволожский район, Мурино, улица Шувалова, 16/9",26.0,12/18,3744,2890000,1,20,2015,60.056795,30.429325
"Россия, Санкт-Петербург, улица Брянцева, 15к2",86.0,12/25,2460,10490000,3,25,2007,60.041112,30.409994
"Россия, Санкт-Петербург, Красное Село, улица Лермонтова, 4",44.5,1/5,1816,3500000,2,5,1963,59.740189,30.08651
"Россия, Санкт-Петербург, Дунайский проспект, 5к4, подъезд 2",74.0,7/17,662,9100000,3,13,2006,59.829237,30.330717
"Россия, Санкт-Петербург, проспект Кузнецова, 14к1, подъезд 1",58.0,11/23,3531,6630000,2,26,2012,59.86097,30.191748
"Россия, Санкт-Петербург, Пушкинский район, посёлок Шушары, территория Славянка, Ростовская улица",80.1,3/9,3192,5800000,3,9,2013,59.740316,30.470324
"Россия, Ленинградская область, Всеволожский район, Мурино, проспект Авиаторов Балтики, 13",32.5,9/22,3624,3050000,1,18,2016,60.056279,30.441399
"Россия, Санкт-Петербург, Пушкин, территория Лесное, 4",73.1,2/5,9471,4640000,4,5,1981,59.668466,30.256382
"Россия, Санкт-Петербург, территория Сосновая Поляна",48.0,2/5,1709,5400000,2,5,2012,59.835247,30.154567
"Россия, Санкт-Петербург, Купчинская улица, 15к2",52.0,6/9,4543,4999000,2,9,1983,59.83834,30.382766
"Россия, Санкт-Петербург, Краснопутиловская улица, 113к1",31.6,15/25,3069,5900000,0,25,2014,59.848167,30.308179
"Россия, Санкт-Петербург, Парашютная улица, 36к1",36.0,13/24,4130,4500000,1,,2018,60.027494,30.253974
"Россия, Ленинградская область, Всеволожский район, Мурино, Новая улица, 7",54.5,7/25,2703,5100000,2,27,2013,60.040928,30.447184
"Россия, Санкт-Петербург, Октябрьская набережная, 124к4, подъезд 3",71.9,5/9,1599,6150000,3,,,59.860771,30.505583
"Россия, Санкт-Петербург, Богатырский проспект, 63",105.0,5/9,1244,12500000,3,10,2008,60.008698,30.202132
"Россия, Санкт-Петербург, Дибуновская улица, 43",42.4,3/5,4823,4850000,2,5,1964,59.985858,30.265715
"Россия, Санкт-Петербург, улица Грибалёвой, 7к4",30.3,10/12,10254,4850000,0,12,2018,59.983211,30.356032
"Россия, Санкт-Петербург, Ждановская улица, 10",68.0,3/9,2240,16500000,2,5,2001,59.958476,30.278633
"Россия, Санкт-Петербург, улица Седова, 84",90.0,3/6,5272,9999000,3,6,1938,59.875072,30.435461
"Россия, Ленинградская область, Всеволожский район, Мурино, бульвар Менделеева, 11к4",63.6,4/20,273,6500000,2,22,2017,60.051194,30.427457
"Россия, Санкт-Петербург, Апрельская улица, 5",31.0,8/9,375,3300000,1,9,1969,59.962967,30.416749
"Россия, Санкт-Петербург, Комендантский проспект, 51к1, подъезд 8",69.0,12/24,4417,9150000,2,24,2009,60.030951,30.238361
"Россия, Санкт-Петербург, 26-я линия В.О., 7",36.0,2/10,8775,6299999,1,,,59.928879,30.26037
"Россия, Санкт-Петербург, улица Марата, 75",179.0,2/5,3876,19880000,5,5,1858,59.920672,30.341793
"Россия, Санкт-Петербург, Виленский переулок, 7",77.0,2/4,842,10800000,3,4,1837,59.940055,30.362374
"Россия, Санкт-Петербург, Галерная улица, 44А",79.0,2/5,4617,25000000,3,5,1899,59.93043,30.288047
"Россия, Санкт-Петербург, улица Кораблестроителей, 32к1",94.0,5/12,2157,15000000,4,27,2003,59.953462,30.216784
"Россия, Санкт-Петербург, Юнтоловский проспект, 49к7, подъезд 4",60.0,2/5,5738,5600000,2,5,2014,60.02891,30.145557
"Россия, Санкт-Петербург, Таврическая улица, 2",67.0,5/5,5884,8500000,3,,,59.942047,30.377349
"Россия, Санкт-Петербург, Ушаковская набережная, 1к3",26.3,13/18,7004,5125000,0,20,2016,59.983094,30.316892
"Россия, Санкт-Петербург, набережная реки Фонтанки, 78",72.0,3/3,3991,15150000,3,3,1798,59.926999,30.33352
"Россия, Санкт-Петербург, Ковалёвская улица, 18к2",64.0,1/5,6012,4200000,3,5,1972,59.978097,30.509859
"Россия, Санкт-Петербург, Пушкинский район, посёлок Шушары, территория Пулковское, Переведенская улица, 8с1",90.0,4/5,120,10990000,3,5,2017,59.756469,30.370962
"Россия, Санкт-Петербург, улица Жукова, 1",52.6,4/14,1498,7113137,1,15,,59.962435,30.405062
"Россия, Санкт-Петербург, Парашютная улица, 44к2",38.5,9/24,1397,4800000,1,25,2018,60.02984,30.249465
"Россия, Санкт-Петербург, проспект Ветеранов, 143к1",39.0,3/9,3435,4600000,2,9,1972,59.83584,30.141936
"Россия, Санкт-Петербург, Ждановская улица, 45",109.0,4/10,1143,17000000,3,15,2017,59.962719,30.267485
"Россия, Санкт-Петербург, Сестрорецк, Дубковское шоссе, 38",40.0,8/12,7882,6700000,0,12,2008,60.091002,29.948215
"Россия, Санкт-Петербург, улица Партизана Германа, 12",34.0,5/9,3300,3600000,1,9,1969,59.836057,30.178067
"Россия, Санкт-Петербург, проспект Луначарского, 56к1",46.4,8/9,501,6550000,2,,,60.042307,30.337724
"Россия, Санкт-Петербург, Гагаринская улица, 3",105.9,1/6,5499,10000000,3,6,1917,59.947978,30.341371
"Россия, Санкт-Петербург, Комендантский проспект, 50к1",44.8,7/7,21,4900000,1,10,2001,60.028568,30.233744
"Россия, Санкт-Петербург, улица Лазо, 5, подъезд 3",74.3,9/11,615,8200000,2,3,1960,59.957372,30.48644
"Россия, Санкт-Петербург, проспект Тореза, 96",217.6,17/17,986,20900000,5,18,1996,60.018255,30.333628
"Россия, Санкт-Петербург, Полтавский проезд, 2",46.4,3/7,191,9400000,1,7,2013,59.926278,30.366839
"Россия, Санкт-Петербург, Ленинский проспект, 91",76.0,4/9,6291,9600000,3,16,2010,59.85463,30.206642
"Россия, Санкт-Петербург, Мебельная улица",67.6,2/25,5045,10150000,2,24,2013,59.993419,30.222883
"Россия, Санкт-Петербург, Коломенская улица, 42",136.0,2/4,2047,16800000,5,5,1899,59.921042,30.350848
"Россия, Санкт-Петербург, Кронверкская улица, 27",50.0,4/6,4720,8600000,2,6,1910,59.961566,30.310936
"Россия, Санкт-Петербург, Караванная улица, 24-26",50.2,1/5,3789,8500000,1,5,1800,59.934308,30.341416
"Россия, Санкт-Петербург, Верейская улица, 47",68.0,6/7,6157,8700000,2,6,1978,59.912657,30.329208
"Россия, Санкт-Петербург, Туристская улица",33.0,24/27,4131,4990000,1,27,2014,59.99701,30.208088
"Россия, Санкт-Петербург, Софийская улица, 72",46.2,5/5,1922,4150000,2,5,1966,59.843584,30.435497
"Россия, Санкт-Петербург, Пушкин, Оранжерейная улица, 51А",91.4,1/5,5161,9000000,3,5,2007,59.724437,30.416533
"Россия, Ленинградская область, Всеволожский район, Мурино, Воронцовский бульвар, 2",70.0,7/18,5647,6500000,2,18,2014,60.051464,30.420423
"Россия, Санкт-Петербург, Рыбацкий проспект, 47",39.0,2/16,7010,4450000,1,12,1989,59.837038,30.51489
"Россия, Ленинградская область, Всеволожский район, Мурино, улица Шувалова, 3",26.0,18/22,761,3150000,0,22,2014,60.052092,30.423711
"Россия, Санкт-Петербург, Туристская улица",32.0,3/17,2949,4100000,1,17,2012,59.99701,30.208088
"Россия, Санкт-Петербург, Кировский район, муниципальный округ Княжево",45.0,12/17,5342,6500000,1,17,2008,59.83706,30.27141
"Россия, Санкт-Петербург, Дегтярный переулок, 6",110.0,5/5,4928,8500000,4,4,1898,59.938437,30.378454
"Россия, Санкт-Петербург, Железноводская улица, 60",54.0,2/10,376,7600000,3,9,1965,59.949379,30.23846
"Россия, Санкт-Петербург, улица Партизана Германа, 38",80.2,3/3,2823,6700000,3,3,1953,59.824855,30.177141
"Россия, Санкт-Петербург, Среднерогатская улица, 11",42.2,10/23,4827,4695000,2,26,2017,59.822711,30.33308
"Россия, Санкт-Петербург, Выборгское шоссе, 15",74.4,20/27,6292,10900000,3,28,2012,60.05295,30.311862
"Россия, Санкт-Петербург, Новоизмайловский проспект, 57к2",50.4,4/5,5276,5300000,2,5,1968,59.859122,30.300013
"Россия, Санкт-Петербург, Кременчугская улица, 9к2",44.7,3/9,2356,9500000,1,9,2015,59.923572,30.368348
"Россия, Санкт-Петербург, улица Маршала Тухачевского, 23",79.9,2/16,1817,7250000,2,16,2017,59.968263,30.428346
"Россия, Санкт-Петербург, проспект Наставников, 19",160.0,17/24,665,16900000,3,22,2004,59.94444,30.491588
"Россия, Санкт-Петербург, проспект Металлистов, 21к3",43.0,3/5,3532,3950000,2,5,1964,59.955016,30.42425
"Россия, Санкт-Петербург, посёлок Парголово, Заречная улица, 37",55.0,23/27,3996,8500000,2,28,2015,60.082023,30.33847
"Россия, Санкт-Петербург, посёлок Парголово, улица Михаила Дудина, 23к1, подъезд 2",60.3,4/25,3625,6650000,2,26,2011,60.069252,30.330484
"Россия, Санкт-Петербург, улица Маршала Тухачевского, 23",125.0,11/16,9473,10990000,3,16,2017,59.968263,30.428346
"Россия, Санкт-Петербург, Северный проспект, 18/1",45.0,4/5,1600,4600000,2,,,60.032097,30.34527
"Россия, Санкт-Петербург, Измайловский проспект, 16/30",110.6,3/6,3745,12900000,4,7,1911,59.911448,30.308232
"Россия, Санкт-Петербург, проспект Пятилеток, 8к2",78.4,6/16,2244,8050000,3,16,1993,59.921033,30.459087
"Россия, Санкт-Петербург, проспект Просвещения, 15",65.0,6/9,2565,8200000,3,10,1992,60.053952,30.327196
"Россия, Санкт-Петербург, Клочков переулок, 8",80.0,5/17,1145,8500000,3,17,1993,59.920136,30.462365
"Россия, Санкт-Петербург, Фермское шоссе, 20к1",62.6,5/17,843,13500000,2,16,2013,60.014185,30.311386
"Россия, Санкт-Петербург, улица Карпинского, 28к1",58.5,2/7,1247,5650000,3,,,60.009876,30.425993
"Россия, Санкт-Петербург, улица Зайцева, 18/16",51.9,1/5,10257,5600000,2,5,1958,59.87542,30.269713
"Россия, Санкт-Петербург, улица Хошимина, 13к1",71.4,11/12,3194,7900000,3,12,1984,60.051886,30.330556
"Россия, Санкт-Петербург, улица Щербакова, 29к1",80.9,6/9,22,8295000,3,9,2003,60.02811,30.285568
"Россия, Санкт-Петербург, Витебский проспект, 61к2",44.0,2/5,4544,4390000,2,5,1965,59.84602,30.364377
"Россия, Санкт-Петербург, Пушкин, Оранжерейная улица, 51А",57.0,3/9,4418,6250000,3,9,1968,59.724437,30.416533
"Россия, Санкт-Петербург, посёлок Парголово, Заречная улица, 19к1",60.0,4/19,274,6500000,2,19,2015,60.07169,30.321806
"Россия, Санкт-Петербург, улица Адмирала Трибуца, 8",86.0,2/9,2461,12360000,3,19,2016,59.852972,30.148108
"Россия, Санкт-Петербург, улица Кржижановского, 7, подъезд 4",35.0,1/14,5046,3550000,1,,,59.930201,30.470109
"Россия, Санкт-Петербург, территория Горелово, улица Коммунаров, 118к2",67.2,6/10,8783,5500000,3,,,59.786713,30.149913
"Россия, Санкт-Петербург, Кирочная улица, 57",77.0,7/9,5500,17997000,2,10,2016,59.94079,30.383871
"Россия, Санкт-Петербург, проспект Просвещения, 15",38.7,6/22,3073,4650000,0,29,2017,60.053952,30.327196
"Россия, Ленинградская область, Всеволожский район, Мурино, Новая улица, 15",30.0,3/27,2158,2800000,0,28,2017,60.038739,30.454757
"Россия, Санкт-Петербург, Октябрьская набережная, 70к4",93.1,5/9,4930,11200000,3,9,1998,59.875741,30.460497
"Россия, Санкт-Петербург, Гороховая улица, 51",59.0,1/4,2051,9950000,2,,,59.927022,30.323809
"Россия, Санкт-Петербург, Гражданский проспект, 6",36.4,4/11,1710,4400000,1,,,59.998643,30.381831
"Россия, Санкт-Петербург, улица Льва Толстого, 5",146.0,3/5,2707,13000000,5,4,1893,59.96534,30.314287
"Россия, Санкт-Петербург, Выборгское шоссе, 15",74.4,20/27,6292,10900000,3,28,2012,60.05295,30.311862
"Россия, Санкт-Петербург, Вёсельная улица, 5",80.0,2/5,121,11780000,3,5,1910,59.929596,30.245018
"Россия, Санкт-Петербург, Фурштатская улица, 33",124.0,4/4,616,30000000,3,,,59.944905,30.362643
"Россия, Санкт-Петербург, проспект Юрия Гагарина, 77",110.0,4/9,4620,22700000,3,8,2008,59.838358,30.334194
"Россия, Санкт-Петербург, Пушкинский район, посёлок Шушары, Московское шоссе, 282",45.8,5/6,990,2890000,1,6,2012,59.756614,30.476038
"Россия, Санкт-Петербург, Лермонтовский проспект, 10/53",93.0,3/4,6017,9449000,2,4,1890,59.922675,30.292826
"Россия, Санкт-Петербург, Дальневосточный проспект, 12к2",46.6,8/13,4281,6650000,1,13,2018,59.913726,30.438479
"Россия, Санкт-Петербург, проспект Стачек, 87",61.0,4/13,7011,7100000,2,13,1976,59.861128,30.254459
"Россия, Санкт-Петербург, посёлок Парголово, улица Николая Рубцова, 9",60.5,20/27,3302,6490000,2,28,2014,60.076816,30.340931
"Россия, Санкт-Петербург, Барочная улица, 12",112.0,3/10,3877,38390000,2,11,2010,59.969304,30.287984
"Россия, Санкт-Петербург, улица Партизана Германа, 19",102.0,3/9,6158,10990000,3,9,2001,59.837965,30.173818
"Россия, Санкт-Петербург, Среднерогатская улица, 20",29.1,5/17,3439,3200000,0,18,2019,59.820282,30.3382
"Россия, Санкт-Петербург, Краснопутиловская улица, 94",15.0,1/5,9474,1360000,1,5,1962,59.849193,30.311493
"Россия, Санкт-Петербург, Учительская улица, 18к3",80.0,13/18,502,13500000,3,18,2009,60.032915,30.405718
"Россия, Санкт-Петербург, Ленинский проспект, 82к3",44.3,16/23,1502,5395000,1,23,2011,59.859162,30.197425
"Россия, Санкт-Петербург, Северный проспект, 8к1",36.0,12/16,193,4110000,1,16,1982,60.031342,30.331858
"Россия, Санкт-Петербург, посёлок Парголово, улица Валерия Гаврилина, 5",39.6,23/25,5885,4150000,1,26,2012,60.0745,30.3352
"Россия, Санкт-Петербург, улица Савушкина, 63В",40.0,3/12,4722,4950000,1,12,1990,59.984656,30.269605
"Россия, Санкт-Петербург, улица Грота, 1-3В",62.5,4/10,2951,13100000,2,6,1934,59.972604,30.292413
"Россия, Санкт-Петербург, Караванная улица, 11/64",86.0,5/5,6294,20000000,2,5,1777,59.934069,30.340895
"Россия, Санкт-Петербург, улица Бурцева, 19",53.1,2/9,4136,5350000,2,9,1969,59.83546,30.209283
"Россия, Санкт-Петербург, проспект Испытателей, 20",35.1,7/9,3790,3890000,1,9,1976,60.005126,30.277465
"Россия, Санкт-Петербург, Малая Каштановая аллея, 4",51.3,5/16,762,6750000,2,16,2006,59.843932,30.389153
"Россия, Санкт-Петербург, 5-й Предпортовый проезд, 1",40.0,19/25,5163,7280000,1,25,2009,59.840704,30.310406
"Россия, Санкт-Петербург, проспект Маршала Блюхера, 12АБ",30.3,23/25,1923,3880000,0,3,1843,59.98228,30.37531
"Россия, Санкт-Петербург, Кирочная улица, 7",77.7,2/3,5648,13000000,3,4,1861,59.943809,30.353786
"Россия, Санкт-Петербург, Пулковская улица, 19",46.0,4/5,1400,5600000,2,5,1965,59.834935,30.350265
"Россия, Санкт-Петербург, проспект Энергетиков, 9к6, подъезд 4",25.2,19/22,7884,4090000,0,22,2017,59.93859,30.439665
"Россия, Санкт-Петербург, Будапештская улица, 36к1",64.0,1/9,5741,5450000,3,9,1971,59.862334,30.377555
"Россия, Санкт-Петербург, Петергофское шоссе, 59",41.6,3/18,2358,5000000,1,17,2010,59.849071,30.134328
"Россия, Санкт-Петербург, проспект Королёва, 65, подъезд 1",58.4,18/24,378,7600000,2,25,2011,60.033279,30.241506
"Россия, Санкт-Петербург, улица Антонова-Овсеенко, 18",96.0,3/14,5343,13900000,3,14,2006,59.90949,30.470989
"Россия, Ленинградская область, Всеволожский район, Мурино, Охтинская аллея, 2",25.0,11/22,3628,2890000,0,23,2015,60.048966,30.436188
"Россия, Санкт-Петербург, улица Дмитрия Устинова, 1",72.0,2/9,4828,6450000,3,9,1989,59.840085,30.499933
"Россия, Санкт-Петербург, улица Жени Егоровой, 4к2",51.0,8/9,5277,5000000,2,9,1985,60.063837,30.307568
"Россия, Санкт-Петербург, набережная Обводного канала, 203",84.0,4/4,1820,7300000,3,,,59.909585,30.283412
"Россия, Санкт-Петербург, Красное Село, улица Спирина, 1к1",98.0,9/9,10262,6800000,4,9,2012,59.746496,30.083627
"Россия, Санкт-Петербург, Кирочная улица, 32-34",116.0,3/6,1924,14500000,4,6,1900,59.944098,30.362994
"Россия, Санкт-Петербург, Индустриальный проспект, 35к1",61.0,8/12,1603,6115000,2,,,59.954232,30.469866
"Россия, Санкт-Петербург, Пушкинский район, посёлок Шушары, Новгородский проспект, 10",42.0,19/24,667,3990000,1,24,2015,59.806821,30.369282
"Россия, Санкт-Петербург, улица Маяковского, 42",62.0,4/5,2829,8000000,2,5,1846,59.941195,30.355017
"Россия, Санкт-Петербург, Красное Село, проспект Ленина, 63к2",29.8,2/5,3997,2600000,1,5,1968,59.736802,30.087337
"Россия, Санкт-Петербург, улица Мира, 37",98.2,8/8,2160,21535000,3,10,2017,59.962034,30.328265
"Россия, Санкт-Петербург, Будапештская улица, 88к3",50.1,7/9,8785,5190000,2,9,1977,59.841672,30.397202
"Россия, Санкт-Петербург, Константиновский проспект, 26",379.0,1/4,2567,125000000,5,5,1909,59.972483,30.267853
"Россия, Санкт-Петербург, Смольный проспект, 13",150.0,3/5,4424,74765000,3,5,2015,59.94431,30.395432
"Россия, Санкт-Петербург, Пушкинская улица, 7",42.0,3/5,3195,9000000,1,5,1878,59.930029,30.357065
"Россия, Санкт-Петербург, Ждановская улица, 45",235.0,8/12,5047,80400000,4,15,2017,59.962719,30.267485
"Россия, Санкт-Петербург, Пионерская улица, 50",86.0,7/10,29,16950000,3,14,2012,59.963539,30.273171
"Россия, Санкт-Петербург, Комендантский проспект, 71",33.6,14/14,2465,4149000,1,27,2017,60.041099,30.221608
"Россия, Санкт-Петербург, улица Коллонтай, 4к1",56.8,20/22,3746,7210000,2,22,2012,59.914773,30.447139
"Россия, Санкт-Петербург, Варшавская улица, 51к1",35.1,2/15,7006,4850000,1,15,1986,59.855308,30.313541
"Россия, Санкт-Петербург, Вязовая улица, 8",170.0,6/8,275,64486000,4,10,2017,59.967691,30.276109
"Россия, Санкт-Петербург, набережная Чёрной речки, 22",106.2,10/11,1248,16140000,4,9,1965,59.989139,30.290203
"Россия, Санкт-Петербург, Приморский проспект, 22",84.6,2/3,3074,13000000,3,3,1917,59.982514,30.273944
"Россия, Санкт-Петербург, Смольный проспект, 13",266.0,5/5,4552,125000000,5,5,2015,59.94431,30.395432
"Россия, Санкт-Петербург, Пушкинский район, посёлок Шушары, Вишерская улица, 16",72.4,17/20,194,8300000,3,20,2012,59.806097,30.374375
"Россия, Санкт-Петербург, Петровский проспект, 5",155.1,9/10,5502,29546550,4,12,2017,59.959233,30.27221
"Россия, Санкт-Петербург, улица Академика Байкова, 1",49.0,6/9,3537,4690000,2,12,1978,60.029121,30.367701
"Россия, Санкт-Петербург, Новоизмайловский проспект, 75",15.0,1/5,9475,1360000,0,5,1961,59.857206,30.300642
"Россия, Санкт-Петербург, улица Адмирала Трибуца, 8",39.0,3/12,4934,5000000,1,19,2016,59.852972,30.148108
"Россия, Санкт-Петербург, Новоизмайловский проспект, 38к1",45.0,2/5,2245,5000000,2,5,1962,59.856953,30.306229
"Россия, Санкт-Петербург, улица Софьи Ковалевской, 11к4",45.0,5/5,6022,4500000,2,5,1965,60.014652,30.41762
"Россия, Санкт-Петербург, Народная улица, 19",45.4,5/5,3881,3600000,2,,,59.879728,30.465078
"Россия, Санкт-Петербург, проспект Обуховской Обороны, 119",92.0,5/5,2708,11999000,2,5,1957,59.892771,30.438084
"Россия, Санкт-Петербург, Пушкин, Оранжерейная улица, 51А",100.0,2/4,844,13000000,3,4,2002,59.724437,30.416533
"Россия, Санкт-Петербург, Антоновская улица, 5",32.0,2/5,617,3600000,1,5,1962,59.972762,30.403723
"Россия, Санкт-Петербург, Караванная улица, 11/64",86.0,5/5,6294,20000000,2,5,1777,59.934069,30.340895
"Россия, Санкт-Петербург, Байконурская улица, 26",63.0,23/25,992,8800000,2,25,2007,60.014711,30.279379
"Россия, Санкт-Петербург, Искровский проспект",33.0,3/9,4623,3500000,1,,,59.904699,30.467764
"Россия, Ленинградская область, Ломоносовский район, Виллозское городское поселение, территория Южная часть производственной зоны Горелово, территория Северная часть производственной зоны Горелово, Волхонское шоссе, 7В",100.5,14/16,124,8200000,3,16,2014,59.787093,30.207423
"Россия, Ленинградская область, Всеволожский район, Мурино, проспект Авиаторов Балтики, 15",26.0,7/24,5165,3095000,0,24,2017,60.057541,30.442243
"Россия, Санкт-Петербург, Коломяжский проспект, 20",81.2,2/13,2953,9490000,3,24,2002,59.998774,30.298315
"Россия, Санкт-Петербург, проспект Художников, 15А",62.6,5/9,1149,6400000,3,9,1974,60.039535,30.347183
"Россия, Санкт-Петербург, Московский проспект, 183-185",81.9,14/18,5649,10385000,2,,,59.855331,30.319839
"Россия, Санкт-Петербург, Московский проспект, 183-185",155.0,17/17,3440,20500000,4,24,2014,59.855331,30.319839
"Россия, Санкт-Петербург, улица Оптиков",57.0,2/17,7885,7300000,2,17,2009,59.999287,30.2253
"Россия, Санкт-Петербург, улица Жукова, 1",50.7,4/14,1503,6803592,1,15,,59.962435,30.405062
"Россия, Санкт-Петербург, Благодатная улица, 13",55.2,5/5,4285,6800000,3,,,59.874788,30.302043
"Россия, Санкт-Петербург, Комендантский проспект, 17к1",63.0,12/25,1401,8750000,2,26,2005,60.012539,30.255591
"Россия, Санкт-Петербург, Русановская улица, 16к1",35.3,20/24,2053,4100000,1,25,2017,59.865772,30.509653
"Россия, Санкт-Петербург, Долгоозёрная улица, 7",71.9,9/10,1713,7200000,3,10,1987,60.014697,30.243814
"Россия, Санкт-Петербург, Басков переулок, 2",135.3,6/8,4723,32314471,3,10,2018,59.939767,30.353184
"Россия, Санкт-Петербург, Большая Посадская улица, 9/5",76.6,6/6,5742,9200000,3,6,1916,59.959422,30.327151
"Россия, Санкт-Петербург, Вязовая улица, 8",398.1,8/8,6295,238860000,7,10,2017,59.967691,30.276109
"Россия, Санкт-Петербург, улица Седова, 86",88.0,1/5,3794,7950000,4,5,1953,59.875203,30.43803
"Россия, Санкт-Петербург, Комендантский проспект, 50к1",44.1,4/7,5886,5500000,1,10,2001,60.028568,30.233744
"Россия, Санкт-Петербург, Поэтический бульвар, 5к1",60.6,8/9,6163,7300000,3,9,1974,60.043768,30.346096
"Россия, Санкт-Петербург, Литейный проспект, 33",125.4,3/4,3304,10750000,5,4,1856,59.940979,30.347624
"Россия, Санкт-Петербург, Юнтоловский проспект, 51к1",36.6,3/5,4425,2900000,0,5,2017,60.033283,30.143239
"Россия, Санкт-Петербург, улица Дыбенко",50.0,5/5,7013,4300000,3,,,59.904302,30.47213
"Россия, Санкт-Петербург, проспект Луначарского, 15к1",81.0,13/25,4140,9100000,2,25,2007,60.04211,30.333448
"Россия, Санкт-Петербург, улица Добровольцев, 48к2",46.0,5/5,5350,4800000,2,5,1970,59.829631,30.16867
"Россия, Санкт-Петербург, улица Типанова, 27/39",150.0,18/25,3197,26950000,4,26,2011,59.853812,30.349699
"Россия, Санкт-Петербург, проспект Просвещения, 15",56.8,16/24,5278,7390000,2,29,2017,60.053952,30.327196
"Россия, Санкт-Петербург, посёлок Парголово, улица Фёдора Абрамова, 23к1",42.0,24/25,379,5000000,1,28,2015,60.081511,30.345477
"Россия, Санкт-Петербург, улица Достоевского, 30",35.0,4/5,3999,3999990,0,6,1882,59.923581,30.347866
"Россия, Санкт-Петербург, Средний проспект Васильевского острова, 7",96.1,3/6,503,14299000,2,6,1917,59.945265,30.285218
"Россия, Санкт-Петербург, проспект Авиаконструкторов, 38к1",70.5,2/10,10263,7460000,2,14,2001,60.027256,30.221949
"Россия, Санкт-Петербург, Офицерский переулок, 8",112.0,4/8,670,20000000,2,8,2014,59.955606,30.289098
"Россия, Санкт-Петербург, проспект Наставников, 47к1",78.8,17/18,1826,8300000,3,18,2007,59.957377,30.480772
"Россия, Санкт-Петербург, проспект Просвещения, 15",54.4,7/25,1607,6235000,2,29,2017,60.053952,30.327196
"Россия, Санкт-Петербург, проспект Космонавтов, 102к3",25.0,4/20,4830,3700000,0,,2018,59.830988,30.364799
"Россия, Ленинградская область, Всеволожский район, Мурино, улица Шоссе в Лаврики, 85",40.6,18/18,5048,3400000,1,18,2015,60.064358,30.457973
"Россия, Санкт-Петербург, улица Кораблестроителей, 30",54.6,6/6,4553,7500000,1,18,2004,59.951912,30.216667
"Россия, Санкт-Петербург, улица Матроса Железняка, 55",54.1,4/5,8788,4800000,3,5,1962,59.999687,30.318626
"Россия, Санкт-Петербург, улица Жукова, 1",81.1,10/14,3629,11984000,2,15,,59.962435,30.405062
"Россия, Санкт-Петербург, улица Чайковского, 44",53.0,2/5,2247,9200000,2,5,1907,59.946676,30.361413
"Россия, Санкт-Петербург, улица Брянцева, 15к2",43.0,24/25,764,5800000,1,25,2007,60.041112,30.409994
"Россия, Санкт-Петербург, Гжатская улица, 22к4",105.0,7/17,2569,16500000,3,24,2012,60.01365,30.388281
"Россия, Санкт-Петербург, Нарвский проспект, 10, подъезд 1",54.0,2/5,195,5900000,3,,,59.904563,30.274438
"Россия, Санкт-Петербург, улица Мира, 36",86.5,3/8,3540,14270000,2,9,2017,59.962489,30.3284
"Россия, Санкт-Петербург, Резная улица, 6",104.0,9/10,7008,26990000,3,10,2012,59.965512,30.281346
"Россия, Санкт-Петербург, улица Дыбенко",67.0,4/16,3751,9750000,2,,,59.904302,30.47213
"Россия, Санкт-Петербург, Гжатская улица, 22к2",100.5,13/18,3884,13990000,3,19,2012,60.01119,30.386736
"Россия, Санкт-Петербург, улица Бабушкина, 101к1",45.3,2/7,3079,3900000,2,7,1961,59.868342,30.450472
"Россия, Санкт-Петербург, 9-я Советская улица, 9/30",51.2,2/5,2831,7000000,2,,,59.937855,30.373172
"Россия, Санкт-Петербург, Петергоф, Парковая улица, 20к3с8",28.2,2/5,2466,3000000,0,,,59.85679,29.942501
"Россия, Санкт-Петербург, Авангардная улица, 39к2",30.7,5/5,276,3000000,1,5,1971,59.829323,30.180744
"Россия, Санкт-Петербург, Большой проспект Петроградской стороны, 51",143.0,5/5,1926,14000000,4,,,59.962025,30.306445
"Россия, Санкт-Петербург, Вязовая улица, 8",398.1,8/8,6295,238860000,7,10,2017,59.967691,30.276109
"Россия, Санкт-Петербург, улица Коммуны, 26к1",63.0,3/12,2162,5250000,3,,,59.947631,30.502763
"Россия, Санкт-Петербург, улица Восстания, 20/16",169.3,5/5,2359,21000000,5,4,1890,59.93763,30.360065
"Россия, Санкт-Петербург, Среднерогатская улица, 11",102.2,3/26,31,15300000,3,26,2017,59.822711,30.33308
"Россия, Санкт-Петербург, улица Шкапина, 9-11",90.0,11/20,1249,11000000,3,21,2014,59.905339,30.291569
"Россия, Санкт-Петербург, посёлок Парголово, улица Фёдора Абрамова, 20к1",35.0,17/27,3442,4200000,1,28,2014,60.081004,30.340985
"Россия, Санкт-Петербург, Комендантский проспект, 27к2",100.7,1/10,847,8000000,5,10,1988,60.019361,30.24951
"Россия, Санкт-Петербург, Среднерогатская улица, 11",40.8,2/23,5887,4611310,2,26,2017,59.822711,30.33308
"Россия, Санкт-Петербург, Среднерогатская улица, 20",26.2,12/17,618,2900000,0,18,2019,59.820282,30.3382
"Россия, Санкт-Петербург, проспект Ветеранов, 122",104.1,2/13,9476,12500000,3,17,2005,59.832575,30.178947
"Россия, Санкт-Петербург, Пионерская улица, 50",42.5,9/11,5505,7800000,1,14,2012,59.963539,30.273171
"Россия, Санкт-Петербург, Туристская улица",51.5,11/16,4624,8150000,2,16,2011,59.99701,30.208088
"Россия, Санкт-Петербург, Московский проспект, 6",70.3,7/7,2054,8290000,3,,,59.924749,30.318042
"Россия, Санкт-Петербург, Курляндская улица, 22-24Л",59.4,3/6,998,6000000,3,,,59.911241,30.283313
"Россия, Санкт-Петербург, Кондратьевский проспект, 32",65.1,3/5,5650,5000000,2,5,1904,59.965822,30.382002
"Россия, Санкт-Петербург, проспект Космонавтов, 65к12",50.0,6/12,7016,8400000,2,13,2012,59.836341,30.353516
"Россия, Санкт-Петербург, проспект Маршака, 4",93.0,11/17,125,9000000,4,18,2015,60.035432,30.446277
"Россия, Санкт-Петербург, Пушкин, улица Архитектора Данини, 1/19",120.0,4/5,2709,12990000,4,5,2004,59.6943,30.423971
"Россия, Санкт-Петербург, Каменноостровский проспект, 63",112.0,4/6,5279,16000000,3,,1908,59.973365,30.305466
"Россия, Санкт-Петербург, Коломенская улица, 5",111.0,6/6,6028,9500000,3,6,1905,59.926079,30.354846
"Россия, Санкт-Петербург, Витебский проспект, 33к5",41.7,5/5,3796,4099999,2,5,1964,59.858087,30.355888
"Россия, Санкт-Петербург, Огородный переулок, 2",98.0,5/5,1716,11500000,4,5,1954,59.886862,30.269928
"Россия, Санкт-Петербург, Апраксин переулок, 20",108.3,4/5,3198,14550000,4,5,1890,59.927225,30.329064
"Россия, Санкт-Петербург, проспект Просвещения, 15",27.0,7/28,6297,2990000,0,29,2017,60.053952,30.327196
"Россия, Санкт-Петербург, Парашютная улица, 61к4",34.6,16/25,4936,3700000,1,17,2017,60.037378,30.255322
"Россия, Санкт-Петербург, Кондратьевский проспект, 62к6",88.9,4/13,1151,11000000,3,17,2002,59.980745,30.388506
"Россия, Санкт-Петербург, улица Розенштейна, 18",38.0,9/16,1403,6100000,1,17,2014,59.904974,30.288964
"Россия, Ленинградская область, Всеволожский район, Мурино, проспект Авиаторов Балтики, 15, подъезд 1",21.8,13/24,5167,2900000,0,24,2017,60.057406,30.442099
"Россия, Санкт-Петербург, Замшина улица, 37А",42.4,8/10,1504,5350000,1,10,2007,59.983328,30.412689
"Россия, Санкт-Петербург, Таврическая улица, 31-33",97.2,6/7,3310,18600000,3,5,1937,59.945968,30.378364
"Россия, Ленинградская область, Всеволожский район, Мурино, Петровский бульвар, 7",22.0,8/15,7887,3050000,0,15,2016,60.055821,30.431841
"Россия, Санкт-Петербург, Купчинская улица, 36",62.4,8/9,4724,5600000,3,9,1976,59.826044,30.397875
"Россия, Санкт-Петербург, проспект Маршака, 4",37.9,4/18,1828,3699000,1,18,2015,60.035432,30.446277
"Россия, Санкт-Петербург, проспект Луначарского, 58к3",31.1,6/9,4430,3390000,1,,,60.042698,30.341443
"Россия, Санкт-Петербург, улица Доблести, 26к2",28.0,13/15,5351,3350000,1,15,1982,59.85369,30.179854
"Россия, Санкт-Петербург, улица Доблести, 28к2",45.3,8/12,4286,4700000,2,15,1981,59.85219,30.179001
"Россия, Санкт-Петербург, Южное шоссе, 74",37.6,16/25,2954,5500000,1,24,2017,59.862967,30.411925
"Россия, Санкт-Петербург, улица Маяковского, 19/15",15.0,2/4,10267,2200000,0,5,1845,59.93855,30.355672
"Россия, Санкт-Петербург, Комендантский проспект, 18, подъезд 7",50.7,4/9,1609,7190000,2,9,1987,60.009336,30.251082
"Россия, Санкт-Петербург, Лыжный переулок",64.4,9/15,196,9850000,2,19,2012,59.999705,30.199078
"Россия, Санкт-Петербург, Гражданский проспект, 29",49.0,8/12,504,5250000,2,,,60.007047,30.393707
"Россия, Санкт-Петербург, улица Бадаева, 5к2",48.0,4/14,6174,6000000,1,14,2008,59.920294,30.44589
"Россия, Санкт-Петербург, улица Маршала Казакова, 78к1",36.1,22/24,673,4300000,1,26,2015,59.868803,30.165805
"Россия, Санкт-Петербург, проспект Ветеранов, 169к2",24.0,1/12,5753,2850000,0,13,2016,59.838249,30.114439
"Россия, Санкт-Петербург, проспект Королёва, 71к1",88.0,14/19,5049,8500000,3,21,2016,60.035526,30.238739
"Россия, Санкт-Петербург, Дунайский проспект, 68",65.8,6/25,8791,7780000,2,25,2011,59.846459,30.425247
"Россия, Санкт-Петербург, Красное Село, улица Лермонтова, 4",44.1,5/5,4831,4500000,2,5,1963,59.740189,30.08651
"Россия, Санкт-Петербург, Комендантский проспект, 22к2",53.0,12/16,3632,6500000,2,16,1988,60.01253,30.251522
"Россия, Санкт-Петербург, улица Бадаева, 7к2",98.0,8/14,765,11200000,3,14,2010,59.920717,30.444336
"Россия, Санкт-Петербург, проспект Стачек, 59, подъезд 6",82.2,7/7,3797,7799999,3,7,1961,59.873708,30.257981
"Россия, Санкт-Петербург, Пушкинский район, посёлок Шушары, Вишерская улица, 1к2",41.5,21/22,4143,3500000,1,22,2019,59.810808,30.369803
"Россия, Санкт-Петербург, переулок Пирогова, 6",78.0,3/5,380,15350000,2,4,1830,59.929335,30.305475
"Россия, Санкт-Петербург, Пушкин, Оранжерейная улица, 51А",75.6,5/5,3752,12900000,3,5,2000,59.724437,30.416533
"Россия, Санкт-Петербург, Рыбацкий проспект, 47",39.0,2/16,7010,4450000,1,12,1989,59.837038,30.51489
"Россия, Санкт-Петербург, улица Турку, 7, подъезд 7",34.3,3/9,2833,4500000,1,9,1971,59.866522,30.374366
"Россия, Санкт-Петербург, Дальневосточный проспект, 76",46.0,4/5,2365,4450000,2,5,1963,59.878888,30.475616
"Россия, Санкт-Петербург, Заставская улица, 46к3",80.6,10/18,5654,14900000,2,20,2017,59.885548,30.313074
"Россия, Санкт-Петербург, Союзный проспект, 4",57.5,1/15,2579,7800000,1,15,2014,59.916284,30.439548
"Россия, Санкт-Петербург, набережная Чёрной речки, 22",41.2,8/11,3542,5610000,1,9,1965,59.989139,30.290203
"Россия, Санкт-Петербург, Вязовая улица, 8",248.0,4/8,4625,85000000,5,10,2017,59.967691,30.276109
"Россия, Санкт-Петербург, Искровский проспект, 22",46.0,2/16,4554,5250000,1,16,2006,59.905619,30.468959
"Россия, Санкт-Петербург, Сестрорецк, улица Всеволода Боброва, 33",80.0,3/4,1251,8500000,2,4,2007,60.052398,30.001763
"Россия, Санкт-Петербург, Пискарёвский проспект, 1",123.1,5/13,3885,26300000,3,15,2016,59.957584,30.405511
"Россия, Санкт-Петербург, проспект Маршала Блюхера, 9к2",40.0,6/16,9477,4980000,1,16,2016,59.978899,30.374393
"Россия, Санкт-Петербург, посёлок Парголово, Парашютная улица",39.5,18/19,281,4790000,1,21,2015,60.063464,30.211843
"Россия, Санкт-Петербург, проспект Народного Ополчения, 187",46.9,2/5,4001,3990000,2,5,1968,59.825769,30.211915
"Россия, Санкт-Петербург, Таврическая улица, 15",128.0,4/5,34,31900000,3,5,1916,59.94371,30.378355
"Россия, Санкт-Петербург, проспект Космонавтов, 37, подъезд 1",50.5,4/25,1152,7980000,2,25,2009,59.85473,30.348836
"Россия, Санкт-Петербург, Невский проспект, 128",100.0,3/4,2164,15000000,4,,,59.930669,30.366443
"Россия, Санкт-Петербург, посёлок Парголово, улица Фёдора Абрамова, 8",39.0,16/26,5168,5000000,1,27,2013,60.073759,30.338317
"Россия, Санкт-Петербург, улица Олеко Дундича",47.0,2/12,1829,5400000,2,12,1984,59.830997,30.410874
"Россия, Санкт-Петербург, Ленская улица, 15",57.6,5/9,3202,6812000,3,9,1983,59.940046,30.491677
"Россия, Санкт-Петербург, Кировский район, муниципальный округ Княжево",39.9,6/13,3080,5600000,1,24,2010,59.852606,30.288407
"Россия, Санкт-Петербург, Пушкинский район, посёлок Шушары, территория Славянка, Полоцкая улица",44.1,1/9,5892,3700000,2,9,2013,59.738126,30.46462
"Россия, Санкт-Петербург, Московский проспект, 73к4",93.0,8/11,6300,16950000,3,11,2015,59.905006,30.316686
"Россия, Санкт-Петербург, набережная реки Смоленки, 3к2",42.7,2/10,2470,6700000,1,11,2015,59.94969,30.262796
"Россия, Санкт-Петербург, Пионерская улица, 50",150.0,10/11,6177,31900000,4,14,2012,59.963539,30.273171
"Россия, Санкт-Петербург, посёлок Парголово, жилой комплекс Парнас",58.0,9/9,4938,5700000,3,,,60.070828,30.321357
"Россия, Ленинградская область, Всеволожский район, Мурино, Петровский бульвар, 3к1",34.3,7/12,1930,3700000,1,12,2018,60.055466,30.437141
"Россия, Санкт-Петербург, Корпусная улица, 9",158.0,4/12,6029,37500000,4,12,2013,59.962751,30.287697
"Россия, Санкт-Петербург, Пушкин, Оранжерейная улица, 51А",43.0,3/3,850,4950000,2,,,59.724437,30.416533
"Россия, Санкт-Петербург, Шуваловский проспект, 63Б",61.0,11/11,7017,9550000,2,11,2008,60.023947,30.222821
"Россия, Санкт-Петербург, Светлановский проспект, 115к2",60.1,9/9,2248,5150000,3,9,1971,60.043035,30.404056
"Россия, Санкт-Петербург, Заневский проспект, 63",42.0,5/5,126,4700000,2,5,1962,59.930944,30.427942
"Россия, Санкт-Петербург, Пушкинская улица, 8",134.0,5/5,2955,23000000,4,6,1877,59.929912,30.357792
"Россия, Санкт-Петербург, Парашютная улица, 61к4",61.8,8/17,1004,6176000,3,17,2017,60.037378,30.255322
"Россия, Санкт-Петербург, улица Оптиков",61.0,7/10,1718,7000000,2,10,2008,59.999287,30.2253
"Россия, Санкт-Петербург, Пулковская улица, 6к3",74.0,12/14,2062,9500000,2,14,2005,59.839108,30.350795
"Россия, Санкт-Петербург, Белградская улица, 26к5",44.3,3/5,7890,4500000,2,5,1964,59.859266,30.370135
"Россия, Санкт-Петербург, улица Оптиков",92.0,7/12,1506,14500000,3,12,2010,59.999287,30.2253
"Россия, Санкт-Петербург, Суздальское шоссе, 26к2",44.0,5/18,4727,4900000,1,26,2016,60.058349,30.272228
"Россия, Санкт-Петербург, Коломенская улица, 13",72.0,3/5,4287,9490000,3,5,1911,59.925038,30.354082
"Россия, Санкт-Петербург, Фермское шоссе, 12А",68.8,6/10,5281,15500000,2,10,2012,60.012534,30.310784
"Россия, Санкт-Петербург, Парашютная улица, 19к1",71.3,4/4,198,8700000,2,5,2001,60.018475,30.273791
"Россия, Санкт-Петербург, улица Ольги Форш, 1/4",60.0,6/9,5353,5600000,3,9,1972,60.036214,30.38838
"Россия, Санкт-Петербург, Московский проспект, 73к4",93.0,8/11,6300,16950000,3,11,2015,59.905006,30.316686
"Россия, Санкт-Петербург, проспект Просвещения, 15",57.5,4/25,5756,6379223,2,29,2017,60.053952,30.327196
"Россия, Санкт-Петербург, Пушкинский район, посёлок Шушары, Вилеровский переулок, 8",60.1,11/14,2710,5200000,2,25,2017,59.810962,30.360434
"Россия, Санкт-Петербург, Ждановская улица, 45",109.5,7/10,2834,18750000,2,15,2017,59.962719,30.267485
"Россия, Санкт-Петербург, Большой проспект Петроградской стороны, 69",39.7,1/5,5508,8100000,1,,1910,59.964223,30.309966
"Россия, Санкт-Петербург, проспект Обуховской Обороны, 111Б",71.0,2/3,620,7000000,2,4,1880,59.893516,30.436386
"Россия, Санкт-Петербург, посёлок Парголово, Парашютная улица",85.1,3/19,3313,11500000,3,21,2015,60.063464,30.211843
"Россия, Санкт-Петербург, Пушкин, Песочная улица, 6",157.3,5/5,5051,27000000,4,6,2008,59.729028,30.400247
"Россия, Санкт-Петербург, Балтийский бульвар, 4",62.0,15/23,674,7750000,2,25,2018,59.868984,30.155707
"Россия, Санкт-Петербург, Сестрорецк, Приморское шоссе, 261А",61.0,2/9,10269,5350000,2,6,2001,60.07709,29.966262
"Россия, Санкт-Петербург, Малодетскосельский проспект, 36",61.0,5/5,508,7300000,2,5,1977,59.911547,30.321105
"Россия, Санкт-Петербург, улица Савушкина, 63В",65.9,4/12,766,8000000,3,12,1990,59.984656,30.269605
"Россия, Санкт-Петербург, проспект Стачек, 26",78.0,5/5,3443,7500000,3,5,1954,59.889968,30.27274
"Россия, Санкт-Петербург, проспект Маршала Блюхера, 4к1",63.5,17/18,1407,7080000,2,4,2001,59.986686,30.363964
"Россия, Санкт-Петербург, Среднерогатская улица, 20",60.5,14/17,4839,6400000,3,18,2019,59.820282,30.3382
"Россия, Санкт-Петербург, 16-я линия Васильевского острова, 89",24.0,1/6,9478,3500000,0,6,1951,59.945756,30.259292
"Россия, Санкт-Петербург, проспект Юрия Гагарина, 38к1",46.3,5/5,4443,4999990,2,5,1965,59.841875,30.339125
"Россия, Санкт-Петербург, Суздальское шоссе, 24к3",42.4,7/9,3547,4820000,1,8,2017,60.058147,30.274204
"Россия, Ленинградская область, Всеволожский район, Мурино, улица Шоссе в Лаврики, 74к2",63.0,14/17,3798,5500000,2,17,2014,60.062036,30.457757
"Россия, Санкт-Петербург, улица Новостроек, 11",58.0,4/5,1610,5700000,2,5,1959,59.874404,30.264916
"Россия, Санкт-Петербург, улица Антонова-Овсеенко, 5к1",34.0,9/16,4147,4600000,1,16,2007,59.906147,30.459679
"Россия, Санкт-Петербург, Большая Монетная улица, 24",103.0,2/5,3753,13950000,3,,,59.962976,30.323944
"Россия, Санкт-Петербург, улица Стойкости, 29к1",30.4,6/9,4002,3370000,1,9,1970,59.828356,30.200102
"Россия, Санкт-Петербург, проспект Ветеранов, 88",64.1,3/9,381,6400000,3,9,1969,59.831399,30.213415
"Россия, Санкт-Петербург, Парфёновская улица, 4",250.0,16/16,3634,42000000,5,17,2016,59.906143,30.312392
"Россия, Санкт-Петербург, Дворцовая площадь",78.9,8/17,35,7795000,3,17,2012,59.939095,30.315868
"Россия, Санкт-Петербург, проспект Стачек, 87",61.0,4/13,7011,7100000,2,13,1976,59.861128,30.254459
"Россия, Санкт-Петербург, Большой проспект Петроградской стороны, 22-24",162.0,5/7,4557,13000000,5,,,59.95616,30.295961
"Россия, Санкт-Петербург, Московский район, муниципальный округ Пулковский Меридиан",58.0,5/6,2581,10500000,2,7,1939,59.787284,30.302789
"Россия, Санкт-Петербург, Пушкинский район, посёлок Шушары, Старорусский проспект, 6",40.0,2/25,854,3590000,1,25,2017,59.8105,30.358287
"Россия, Санкт-Петербург, Среднерогатская улица, 12к1",50.4,11/18,2366,6200000,2,18,2018,59.824593,30.337419
"Россия, Ленинградская область, Всеволожский район, Заневское городское поселение, Кудрово, жилой комплекс Новый Оккервиль",83.6,7/10,8794,9280000,3,10,2001,59.914899,30.508952
"Россия, Санкт-Петербург, улица Бутлерова, 40",50.9,7/24,1154,8500000,2,24,2009,60.010115,30.404316
"Россия, Ленинградская область, Всеволожский район, Мурино, Графская улица, 8",33.6,9/14,1255,3650000,1,18,2017,60.063563,30.431293
"Россия, Санкт-Петербург, проспект Энгельса, 7к1",86.0,4/5,4627,9900000,3,,,59.99863,30.330717
"Россия, Санкт-Петербург, Рижский проспект, 14",73.5,1/4,282,7550000,2,4,1899,59.913325,30.29377
"Россия, Санкт-Петербург, проспект Королёва, 57к1",44.0,24/24,3887,5650000,1,25,2016,60.028105,30.247138
"Россия, Санкт-Петербург, улица Рубинштейна, 21",62.7,2/4,6179,17950000,2,4,1917,59.928226,30.343276
"Россия, Санкт-Петербург, Ленинский проспект, 74к2",60.0,11/20,5655,7500000,1,20,2012,59.86181,30.185496
"Россия, Санкт-Петербург, Ленинский проспект, 88",42.0,11/16,7021,5480000,1,16,2006,59.856474,30.204477
"Россия, Санкт-Петербург, Нижне-Каменская улица, 7к1",145.0,2/5,4290,20300000,3,5,2013,60.03211,30.225857
"Россия, Ленинградская область, Всеволожский район, Мурино, улица Шоссе в Лаврики, 76",25.6,11/12,1005,2700000,0,,2017,60.062184,30.455951
"Россия, Санкт-Петербург, улица Дыбенко",38.5,3/16,2252,5250000,1,,,59.904302,30.47213
"Россия, Санкт-Петербург, Бестужевская улица, 26",60.8,3/5,3638,4800000,3,5,1964,59.983671,30.406625
"Россия, Санкт-Петербург, Репищева улица, 10к1",26.0,4/12,2472,3100000,0,16,2016,60.020975,30.279504
"Россия, Санкт-Петербург, Воскресенская набережная, 4",149.0,7/9,622,39900000,4,13,2006,59.950659,30.372372
"Россия, Санкт-Петербург, улица Лёни Голикова, 30",48.8,1/5,3207,4800000,4,5,1966,59.844294,30.233924
"Россия, Санкт-Петербург, улица Рубинштейна, 2/45",126.2,3/5,6301,19900000,3,5,1899,59.93245,30.346366
"Россия, Санкт-Петербург, Гжатская улица, 22к2",45.0,16/19,4939,6399000,1,19,2012,60.01119,30.386736
"Россия, Санкт-Петербург, Большая Конюшенная улица, 5",106.3,4/4,2167,20900000,3,4,1845,59.940294,30.323863
"Россия, Санкт-Петербург, Рябовское шоссе, 87",57.1,4/8,5895,2285000,2,1,1917,59.978043,30.507245
"Россия, Санкт-Петербург, Среднерогатская улица, 20",34.7,16/17,6035,4030000,1,18,2019,59.820282,30.3382
"Россия, Санкт-Петербург, улица Типанова, 27/39",71.0,11/22,1721,10990000,2,26,2011,59.853812,30.349699
"Россия, Санкт-Петербург, Альпийский переулок, 16",28.6,1/9,3081,3750000,1,9,1967,59.853916,30.375696
"Россия, Санкт-Петербург, улица Крыленко, 1к1с8, подъезд 2",27.0,9/20,7891,3400000,0,16,2017,59.891489,30.454236
"Россия, Санкт-Петербург, Новоколомяжский проспект, 11",52.0,10/16,128,6000000,1,16,2006,60.029058,30.29403
"Россия, Санкт-Петербург, Пушкинский район, Павловск, Слуцкая улица, 11к2",37.0,2/5,5169,4550000,1,5,2012,59.689091,30.428876
"Россия, Санкт-Петербург, проспект Просвещения, 15",39.0,14/27,5283,4640000,1,29,2017,60.053952,30.327196
"Россия, Санкт-Петербург, посёлок Парголово, Заречная улица, 35к1",41.6,11/26,3314,4850000,1,28,2015,60.081614,30.335155
"Россия, Санкт-Петербург, Варшавская улица, 19к5",26.0,20/20,1508,4570000,0,20,2009,59.873735,30.310505
"Россия, Санкт-Петербург, проспект Королёва, 63к2",38.0,13/24,3444,5650000,1,25,2011,60.033193,30.244919
"Россия, Санкт-Петербург, улица Рубинштейна, 27",255.6,3/5,2711,48000000,5,6,1874,59.927175,30.342593
"Россия, Санкт-Петербург, Среднерогатская улица, 20",23.4,3/17,10274,2700000,0,18,2019,59.820282,30.3382
"Россия, Санкт-Петербург, Купчинская улица, 4к1",58.0,1/9,4728,5900000,3,9,1973,59.844931,30.381454
"Россия, Санкт-Петербург, посёлок Парголово, Заречная улица, 37",80.0,9/24,4446,7400000,3,28,2015,60.082023,30.33847
"Россия, Санкт-Петербург, проспект Маршала Блюхера, 9к1",63.9,4/16,1408,6585000,2,17,2017,59.980128,30.376738
"Россия, Санкт-Петербург, улица Лёни Голикова, 43",49.1,5/5,5509,4380000,4,5,1967,59.841532,30.233385
"Россия, Санкт-Петербург, Индустриальный проспект, 11к2",53.0,10/12,199,4990000,2,,,59.938504,30.478715
"Россия, Санкт-Петербург, Пушкин, Оранжерейная улица, 51А",94.0,2/2,1931,17500000,2,2,1917,59.724437,30.416533
"Россия, Санкт-Петербург, Ленинский проспект, 74к1",81.0,15/18,5359,8300000,3,18,2010,59.860861,30.184993
"Россия, Санкт-Петербург, улица Рубинштейна, 2/45",126.2,3/5,6301,19900000,3,5,1899,59.93245,30.346366
"Россия, Санкт-Петербург, Пушкин, Захаржевская улица, 4",51.0,3/3,1833,5150000,2,3,1958,59.708042,30.413506
"Россия, Санкт-Петербург, Байконурская улица, 7к1",29.0,5/9,2836,4100000,1,9,1974,60.000285,30.276396
"Россия, Санкт-Петербург, Невский проспект, 78",75.0,3/4,2962,29900000,2,4,1826,59.932879,30.348594
"Россия, Санкт-Петербург, проспект Энгельса, 93",160.0,9/25,4005,15000000,4,25,2005,60.024913,30.32177
"Россия, Санкт-Петербург, проспект Просвещения, 15",40.7,20/25,1611,4620000,1,29,2017,60.053952,30.327196
"Россия, Санкт-Петербург, проспект Ветеранов, 171к5",37.0,11/12,5758,4200000,1,13,2017,59.841975,30.113127
"Россия, Санкт-Петербург, Капитанская улица, 4",76.0,6/12,9479,14500000,2,23,2004,59.954773,30.214808
